stop_id,stop_code,stop_name,stop_desc,stop_lat,stop_lon,zone_id,stop_url,location_type,direction,position
2177867806,,Rua Prof. Milton Roque Ramos Krieger (01),,-27.58373,-48.52512,,,,,
2422161961,,Rodovia Tertuliano Brito Xavier (15),,-27.43476,-48.45909,,,,,
2408001486,,Rua João Pio Duarte Silva (03),,-27.59986,-48.51064,,,,,
1453300931,,Avenida Campeche (34),,-27.68672,-48.48299,,,,,
1457087094,,Rua Rui Barbosa (04),,-27.57387,-48.53508,,,,,
1775736235,,Rua Jerônimo José Dias (04),,-27.6144,-48.5435,,,,,
1829770154,,1829770154,,-27.74852,-48.51069,,,,,
1492870613,,Avenida Rubens de Arruda Ramos (02),,-27.5872,-48.5536,,,,,
1431106903,,Avenida Governador Ivo Silveira (01),,-27.59491,-48.57305,,,,,
1775736263,,Avenida Campeche (27),,-27.67362,-48.48399,,,,,
2035067674,,2035067674,,-27.59843,-48.64225,,,,,
2441692651,,Rodovia João Paulo (17),,-27.5613,-48.51658,,,,,
1811523329,,1811523329,,-27.60645,-48.53592,,,,,
1781725096,,Rodovia SC-401 (53),,-27.55601,-48.5018,,,,,
1459256369,,1459256369,,-27.57793,-48.54286,,,,,
1457108796,,1457108796,,-27.59767,-48.54276,,,,,
2395758991,,Rodovia Baldicero Filomeno (086),,-27.80343,-48.56489,,,,,
1605170801,,1605170801,,-27.52169,-48.63807,,,,,
2401015042,,Avenida dos Búzios (04),,-27.4397,-48.50277,,,,,
2401015055,,Rua Jurerê Tradicional (01),,-27.44062,-48.4837,,,,,
1674562474,,Avenida Jorge Lacerda (07),,-27.6382527,-48.5222057,,,,,
872980973,,Rua Lauro Linhares (15),,-27.58442,-48.52497,,,,,
1760536510,,Rodovia SC-406 (40),,-27.71752,-48.50479,,,,,
2084331468,,Avenida das Raias (02),,-27.44445,-48.50149,,,,,
2452117770,,2452117770,,-27.53468,-48.50074,,,,,
2461093319,,Rodovia SC-403 (07),,-27.44839,-48.43343,,,,,
1749712907,,Via do Contorno Ressacada (02),,-27.6656729,-48.5322871,,,,,
1781725090,,Rodovia SC-401 (44),,-27.50518,-48.51419,,,,,
2046570025,,2046570025,,-27.59221,-48.64151,,,,,
2401015053,,Estação Praia do Forte,,-27.43284,-48.51537,,,,,
1827531167,,Estrada Rozália Paulina Ferreira (02),,-27.78334,-48.53566,,,,,
1457087115,,Avenida Mauro Ramos (05),,-27.58986,-48.54295,,,,,
1421417659,,Avenida Prefeito Waldemar Vieira (03),,-27.6117,-48.53046,,,,,
1427179786,,Avenida Jorge Lacerda (18),,-27.6342044,-48.523375,,,,,
2442045815,,Rodovia João Paulo (10),,-27.55509,-48.50455,,,,,
1775736261,,1775736261,,-27.65556,-48.47949,,,,,
1424388856,,Rua José Maria da Luz (02),,-27.61429,-48.545,,,,,
1757813161,,1757813161,,-27.66951,-48.48714,,,,,
2442045851,,2442045851,,-27.538,-48.50699,,,,,
910973317,,910973317,,-27.53668,-48.50878,,,,,
1403927009,,Rodovia SC-405 (37),,-27.67039,-48.50475,,,,,
1431477600,,Rodovia SC-405 (42),,-27.65819,-48.50463,,,,,
1681023419,,Avenida das Rendeiras (12),,-27.60894,-48.4509,,,,,
1890757988,,1890757988,,-27.61221,-48.52895,,,,,
2461093328,,Rua Graciliano Manoel Gomes (04),,-27.44697,-48.40905,,,,,
1760536519,,Rodovia SC-406 (54),,-27.71056,-48.50957,,,,,
2467098998,,2467098998,,-27.41902,-48.43107,,,,,
1773913270,,Rua Bocaiúva (02),,-27.5865,-48.54847,,,,,
2547730010,,2547730010,,-27.62627,-48.66581,,,,,
1551063335,,Rodovia Antônio Luiz Moura Gonzaga (19),,-27.63356,-48.47154,,,,,
1781725094,,Rodovia SC-401 (51),,-27.54163,-48.50514,,,,,
2441692657,,Rodovia Virgílio Várzea (02),,-27.55479,-48.49718,,,,,
2441692660,,Rodovia Virgílio Várzea (05),,-27.54802,-48.49669,,,,,
1746649831,,1746649831,,-27.60131,-48.60155,,,,,
1833402006,,Travessa Olindina V. dos Santos (01),,-27.4518,-48.452,,,,,
2393967216,,Rodovia Baldicero Filomeno (103),,-27.76552,-48.57411,,,,,
2287474408,,2287474408,,-27.71063,-48.50974,,,,,
1760536496,,Rodovia SC-405 (20),,-27.6894,-48.51037,,,,,
2395758993,,Rodovia Baldicero Filomeno (088),,-27.80051,-48.56649,,,,,
874900065,,Rua João Pio Duarte Silva (10),,-27.59966,-48.50986,,,,,
2401015100,,2401015100,,-27.43968,-48.50398,,,,,
2441692674,,Rodovia Virgílio Várzea (18),,-27.54988,-48.49658,,,,,
2082591439,,Rua Conselheiro Mafra (01),,-27.59407,-48.55845,,,,,
2134414265,,2134414265,,-27.43937,-48.39714,,,,,
1728000057,,Estr. Dom João Becker (2),,-27.43988,-48.38759,,,,,
1832707271,,1832707271,,-27.47712,-48.48,,,,,
1781725084,,Rodovia SC-401 (03),,-27.56777,-48.50846,,,,,
2405632339,,Rodovia Admar Gonzaga (10),,-27.59052,-48.4944,,,,,
1836110421,,1836110421,,-27.6527,-48.47932,,,,,
1649117787,,Rua Rui Barbosa (06),,-27.57559,-48.54079,,,,,
1827531387,,1827531387,,-27.77963,-48.50747,,,,,
1431853039,,Estação Saco dos Limões,,-27.61742,-48.52704,,,,,
1828597613,,1828597613,,-27.7815,-48.52444,,,,,
2067008832,,2067008832,,-27.60143,-48.63909,,,,,
2141922898,,Estr. Dom João Becker (31),,-27.439,-48.3899,,,,,
2395758994,,Rodovia Baldicero Filomeno (089),,-27.79837,-48.565,,,,,
2408001493,,Rua Maestro Aldo Krieger (01),,-27.60178,-48.49906,,,,,
2442045816,,Rodovia João Paulo (12),,-27.55494,-48.50449,,,,,
2461093323,,Rodovia SC-403 (12),,-27.43856,-48.41139,,,,,
2193205454,,Rodovia Baldicero Filomeno (119),,-27.73714,-48.56106,,,,,
1681047338,,Rodovia Antônio Luiz Moura Gonzaga (30),,-27.65667,-48.48547,,,,,
1760536508,,Rodovia SC-406 (38),,-27.71598,-48.51022,,,,,
1829770067,,Rodovia SC-406 (38),,-27.75507,-48.50972,,,,,
1829770064,,Rodovia SC-406 (32),,-27.76956,-48.50716,,,,,
2401015041,,Avenida dos Búzios (03A),,-27.44012,-48.50083,,,,,
2442045813,,Rodovia João Paulo (08),,-27.55527,-48.51209,,,,,
2441692672,,Rodovia Virgílio Várzea (16),,-27.54564,-48.49759,,,,,
2422162017,,2422162017,,-27.44661,-48.45774,,,,,
1836110413,,1836110413,,-27.65111,-48.47873,,,,,
1832707268,,1832707268,,-27.46085,-48.45838,,,,,
2067230190,,2067230190,,-27.59756,-48.61992,,,,,
1757813143,,1757813143,,-27.66459,-48.48844,,,,,
2083714233,,Rodovia SC-402 (03),,-27.45469,-48.49175,,,,,
1746649796,,1746649796,,-27.60691,-48.62359,,,,,
1668994834,,Rua Henrique Vera do Nascimento (04),,-27.60494,-48.46579,,,,,
2404247741,,Rua João Pacheco da Costa (09),,-27.60005,-48.47094,,,,,
2067008819,,2067008819,,-27.60707,-48.62862,,,,,
1630777035,,1630777035,,-27.67549,-48.48434,,,,,
1459292327,,Rua do Gramal (01),,-27.68254,-48.49369,,,,,
1794826148,,1794826148,,-27.64213,-48.66364,,,,,
910973320,,Rodovia SC-401 (48),,-27.53559,-48.51047,,,,,
2083714188,,Avenida dos Dourados (04),,-27.44432,-48.49801,,,,,
1027390348,,Rua Profa. Maria Flora Pausewang (02),,-27.59729,-48.51955,,,,,
1794844632,,1794844632,,-27.64356,-48.67021,,,,,
2393967233,,Rodovia Baldicero Filomeno (108),,-27.75818,-48.56917,,,,,
2547713910,,2547713910,,-27.62562,-48.66506,,,,,
2401015056,,Rua Jurerê Tradicional (12),,-27.44073,-48.48353,,,,,
2422161991,,2422161991,,-27.42864,-48.45629,,,,,
2083714239,,Rodovia SC-402 (04),,-27.45346,-48.48972,,,,,
2178991488,,Rodovia SC-403 (29),,-27.45021,-48.43901,,,,,
2035067720,,2035067720,,-27.59705,-48.6429,,,,,
2134414175,,2134414175,,-27.43919,-48.39533,,,,,
2193205501,,2193205501,,-27.73471,-48.562,,,,,
1802197373,,1802197373,,-27.64239,-48.67148,,,,,
2007442262,,2007442262,,-27.70535,-48.52646,,,,,
2401015051,,Avenida dos Búzios (17),,-27.44094,-48.48982,,,,,
2069056884,,2069056884,,-27.49135,-48.52934,,,,,
876374609,,Rua Lauro Linhares (08),,-27.59495,-48.5211,,,,,
1757813114,,1757813114,,-27.60126,-48.51686,,,,,
1681047339,,Rodovia Antônio Luiz Moura Gonzaga (33),,-27.65897,-48.4917,,,,,
2134414323,,2134414323,,-27.43944,-48.39965,,,,,
2319081970,,2319081970,,-27.58095,-48.49445,,,,,
2401015054,,FINAL R. José Cardoso de Oliveira,,-27.43212,-48.51522,,,,,
1746649834,,1746649834,,-27.60569,-48.59159,,,,,
1836110239,,Rodovia Antônio Luiz Moura Gonzaga (02),,-27.66004,-48.49325,,,,,
1836110247,,Rua Laurindo Januário da Silveira (03),,-27.62957,-48.47606,,,,,
1681023451,,Avenida das Rendeiras (09),,-27.60906,-48.44222,,,,,
1681023385,,Avenida das Rendeiras (08),,-27.60956,-48.44496,,,,,
1702065918,,Rua João Henrique (06),,-27.58733,-48.46111,,,,,
2573479611,,Rodovia Amaro Antônio Vieira (2),,-27.5758,-48.51026,,,,,
1681023424,,Rodovia Jornalista Manoel de Menezes (05),,-27.59127,-48.43584,,,,,
1836110243,,Rua Hyppólito do Valle Pereira (02),,-27.60612,-48.47512,,,,,
2183882689,,Rodovia Baldicero Filomeno (131),,-27.71141,-48.56011,,,,,
1836110249,,Rua Laurindo Januário da Silveira (07),,-27.62333,-48.47972,,,,,
2007442283,,2007442283,,-27.70715,-48.5095,,,,,
2035067735,,2035067735,,-27.60095,-48.64069,,,,,
2441692673,,Rodovia Virgílio Várzea (17),,-27.54804,-48.49675,,,,,
1681047321,,Rua Laurindo Januário da Silveira (27),,-27.6098,-48.48387,,,,,
1746649782,,1746649782,,-27.60061,-48.60965,,,,,
1514446571,,Rua João Motta Espezim (12),,-27.60792,-48.53623,,,,,
1402454184,,Cidade Universitária (02),,-27.60165,-48.52247,,,,,
1715695966,,Avenida Jorge Lacerda (21),,-27.6256495,-48.5254151,,,,,
1695509239,,1695509239,,-27.65697,-48.51211,,,,,
2178991485,,Rodovia SC-403 (26),,-27.4484,-48.43486,,,,,
1827531313,,1827531313,,-27.77084,-48.50634,,,,,
2404247769,,Rua Laurindo Januário da Silveira (08),,-27.62094,-48.47847,,,,,
2183882911,,2183882911,,-27.71701,-48.5633,,,,,
2393967239,,Rodovia Baldicero Filomeno (110),,-27.75412,-48.56365,,,,,
1829770122,,1829770122,,-27.71258,-48.51038,,,,,
2442045849,,2442045849,,-27.53662,-48.50477,,,,,
1699939763,,Rua João Motta Espezim (11),,-27.60802,-48.53378,,,,,
2573507840,,Rod. Amaro Antonio Veira (011),,-27.58919,-48.49512,,,,,
1681023396,,Avenida Campeche (23),,-27.66348,-48.48026,,,,,
2069128980,,2069128980,,-27.4948,-48.52472,,,,,
1794844616,,1794844616,,-27.63945,-48.66656,,,,,
2404247748,,Rua do Gramal (12),,-27.69309,-48.49896,,,,,
2319083727,,2319083727,,-27.5823,-48.49582,,,,,
2408001485,,Rua João Pio Duarte Silva (02),,-27.60032,-48.51262,,,,,
2035067705,,2035067705,,-27.59481,-48.64306,,,,,
2404247752,,Rua dos Eucaliptos S/N,,-27.69673,-48.49269,,,,,
2461093329,,Rua Graciliano Manoel Gomes (05),,-27.45036,-48.40895,,,,,
2404247809,,2404247809,,-27.70458,-48.4981,,,,,
1460258415,,Rua Prefeito Dib Cherem (01),,-27.59723,-48.5939,,,,,
2393967208,,Rodovia Baldicero Filomeno (100),,-27.77302,-48.57428,,,,,
2400978309,,Rua Jurerê Tradicional (11),,-27.44469,-48.4841,,,,,
2547772481,,2547772481,,-27.629,-48.66029,,,,,
1424273027,,Rodovia SC-405 (12),,-27.66447,-48.50232,,,,,
2193205462,,Rodovia Baldicero Filomeno (124),,-27.72257,-48.5635,,,,,
1457087070,,Rua Antônio Luz (01),,-27.60016,-48.54934,,,,,
906203331,,906203331,,-27.48693,-48.52031,,,,,
1781725093,,Rodovia SC-401 (50),,-27.54417,-48.50303,,,,,
2083714311,,2083714311,,-27.44676,-48.52588,,,,,
2461093336,,Rua Intendente João Nunes Vieira (13),,-27.43938,-48.40483,,,,,
2461093347,,2461093347,,-27.45138,-48.45398,,,,,
1681047346,,Rodovia Antônio Luiz Moura Gonzaga (21),,-27.64021,-48.47475,,,,,
2283640519,,2283640519,,-27.44526,-48.39824,,,,,
2573479619,,Rodovia Amaro Antônio Vieira (20),,-27.57557,-48.50863,,,,,
1469367881,,Rua Santos Saraiva (13),,-27.59383,-48.58058,,,,,
2083714252,,Rodovia SC-402 (06),,-27.44941,-48.4877,,,,,
2083714315,,2083714315,,-27.44682,-48.5256,,,,,
1460258493,,Rua São Cristóvão (01),,-27.59943,-48.58631,,,,,
1751863854,,Rua Deputado Antônio Edu Vieira (13),,-27.60374,-48.517,,,,,
1424636505,,Rua Cap. Romualdo de Barros (06),,-27.60295,-48.52701,,,,,
2422161987,,2422161987,,-27.42861,-48.45462,,,,,
1903375235,,1903375235,,-27.6637897,-48.5310355,,,,,
2084331480,,2084331480,,-27.47384,-48.49015,,,,,
910973323,,Rodovia SC-401 (50A),,-27.53916,-48.50723,,,,,
2193205446,,2193205446,,-27.75204,-48.56074,,,,,
1833401995,,Rodovia SC-401 (39),,-27.48386,-48.49699,,,,,
2404247766,,2404247766,,-27.59883,-48.46549,,,,,
1428242376,,Rodovia SC-405 (38),,-27.66662,-48.50316,,,,,
2441692661,,Rodovia Virgílio Várzea (06),,-27.54557,-48.49753,,,,,
1836110274,,1836110274,,-27.60322,-48.47724,,,,,
2183882828,,2183882828,,-27.70086,-48.54567,,,,,
1471840100,,Avenida Jorge Lacerda (12),,-27.6453753,-48.521715,,,,,
1836110297,,Rua Hyppólito do Valle Pereira (03),,-27.6071,-48.47573,,,,,
1681047335,,Rodovia Admar Gonzaga (18),,-27.60141,-48.47259,,,,,
2395759014,,2395759014,,-27.79568,-48.56195,,,,,
1431106908,,Rua Santos Saraiva (11),,-27.59799,-48.58475,,,,,
1781725105,,1781725105,,-27.51792,-48.51403,,,,,
2067232849,,2067232849,,-27.59315,-48.61702,,,,,
2404247736,,Rua João Henrique Gonçalves (01),,-27.59865,-48.46595,,,,,
2007442265,,2007442265,,-27.7062,-48.52174,,,,,
2183882700,,Rodovia Baldicero Filomeno (133),,-27.70829,-48.55866,,,,,
2183882842,,2183882842,,-27.70357,-48.55507,,,,,
2193205457,,Rodovia Baldicero Filomeno (122),,-27.72582,-48.56339,,,,,
2441692655,,Rodovia João Paulo (21),,-27.56983,-48.5142,,,,,
1827531433,,1827531433,,-27.78385,-48.5284,,,,,
2067008853,,2067008853,,-27.60708,-48.63013,,,,,
2400978307,,Rua Jurerê Tradicional (05),,-27.4486,-48.48747,,,,,
910973314,,Rodovia SC-401 (09A),,-27.53887,-48.50704,,,,,
2083714265,,Rodovia SC-402 (07),,-27.44648,-48.48722,,,,,
2401015040,,Avenida dos Búzios (03),,-27.43989,-48.50038,,,,,
2408001496,,Rua Sebastião Laurentino da Silva (03),,-27.60824,-48.50483,,,,,
1681047336,,Rua Laurindo Januário da Silveira (24),,-27.62166,-48.48354,,,,,
2067230180,,2067230180,,-27.59952,-48.62245,,,,,
872980959,,Rua Lauro Linhares (02),,-27.58234,-48.52632,,,,,
1804951851,,Avenida Madre Benvenuta (01),,-27.58645,-48.50259,,,,,
1427598000,,1427598000,,-27.65558,-48.51434,,,,,
1746649786,,1746649786,,-27.60165,-48.61676,,,,,
1760536492,,Rodovia SC-405 (16),,-27.6753,-48.50795,,,,,
1460258247,,Rua Governador Ivo Silveira (15),,-27.60001,-48.59221,,,,,
1760536509,,Rodovia SC-406 (39),,-27.71694,-48.50759,,,,,
2408001483,,Rua Dom Wilson Laus Schmidt (01),,-27.60396,-48.50363,,,,,
1425790467,,Rua Deputado Antônio Edu Vieira (11),,-27.60822,-48.52056,,,,,
1468492317,,1468492317,,-27.68105,-48.49035,,,,,
2404247750,,Rua dos Eucaliptos (10),,-27.69361,-48.49098,,,,,
2404247806,,2404247806,,-27.70282,-48.50093,,,,,
2441692670,,Rodovia Virgílio Várzea (14),,-27.54339,-48.5008,,,,,
2559826755,,2559826755,,-27.61829,-48.6433,,,,,
1681023390,,Ponto Final Rua Amaro Coelho,,-27.57538,-48.42307,,,,,
1762149820,,1762149820,,-27.5912,-48.55171,,,,,
1827531149,,Avenida Antônio Borges dos Santos (04),,-27.75039,-48.50674,,,,,
1715695956,,Rua João Motta Espezim (07),,-27.61199,-48.52868,,,,,
2178991466,,2178991466,,-27.43253,-48.42253,,,,,
2404247749,,Rua dos Eucaliptos (01),,-27.70589,-48.50058,,,,,
2408001498,,Rua Sebastião Laurentino da Silva (04A),,-27.60932,-48.50645,,,,,
2422161979,,Rua Apóstolo Paschoal (05),,-27.42991,-48.45877,,,,,
2522384020,,2522384020,,-27.77912,-48.50958,,,,,
2069134877,,2069134877,,-27.5026,-48.52374,,,,,
2178991491,,Rodovia SC-403 (31),,-27.45226,-48.44918,,,,,
1781725098,,Rodovia SC-401 (54),,-27.56608,-48.50535,,,,,
2134414322,,2134414322,,-27.43936,-48.39971,,,,,
1836110265,,1836110265,,-27.6027,-48.47569,,,,,
2183882722,,Rodovia Baldicero Filomeno (137),,-27.70245,-48.55234,,,,,
2441692669,,Rodovia Virgílio Várzea (13),,-27.54111,-48.50124,,,,,
2319081962,,2319081962,,-27.58219,-48.49566,,,,,
1467188934,,Rua Profa. Maria Flora Pausewang (03),,-27.59699,-48.51901,,,,,
2401015045,,Avenida dos Búzios (06),,-27.43909,-48.50604,,,,,
2408001497,,Rua Sebastião Laurentino da Silva (04),,-27.60514,-48.50292,,,,,
2183882727,,Rodovia Baldicero Filomeno (138),,-27.70041,-48.5509,,,,,
1457108795,,1457108795,,-27.59639,-48.54359,,,,,
1468492442,,Avenida Campeche (28),,-27.67542,-48.48451,,,,,
2434678288,,2434678288,,-27.53732,-48.50622,,,,,
1425790457,,Rua Deputado Antônio Edu Vieira (12),,-27.60591,-48.51807,,,,,
1746649838,,1746649838,,-27.61603,-48.62733,,,,,
1763818775,,Rua Felipe Schmidt (04),,-27.59159,-48.56004,,,,,
1424233276,,Rua Silva Jardim (01),,-27.6066571,-48.5471857,,,,,
2441692671,,Rodovia Virgílio Várzea (15),,-27.54442,-48.49932,,,,,
2442045826,,Rodovia Virgílio Várzea (03),,-27.55275,-48.49614,,,,,
2082591451,,2082591451,,-27.59352,-48.55954,,,,,
2401015043,,Avenida dos Búzios (05),,-27.4385,-48.50721,,,,,
2084331469,,Avenida dos Dourados (06),,-27.44425,-48.50109,,,,,
1827531449,,1827531449,,-27.78542,-48.53146,,,,,
1681023441,,Rodovia Jornalista Manoel de Menezes (13),,-27.60594,-48.44018,,,,,
2083714173,,Avenida Jacarandá (08),,-27.44825,-48.53326,,,,,
1804951869,,Avenida Madre Benvenuta (14),,-27.58653,-48.50219,,,,,
1644452618,,Rodovia Admar Gonzaga (25),,-27.58046,-48.50441,,,,,
2573507841,,Rod. Amaro Antonio Veira (12),,-27.58904,-48.49506,,,,,
2400978308,,Rua Jurerê Tradicional (06),,-27.44337,-48.4835,,,,,
1448000271,,Avenida Professor Henrique da Silva Fontes (05),,-27.59093,-48.51542,,,,,
1402454182,,Cidade Universitária (03),,-27.60153,-48.52497,,,,,
2193205470,,2193205470,,-27.7214,-48.56388,,,,,
1411725559,,Rodovia SC-405 (10),,-27.66103,-48.50153,,,,,
2393967246,,Rodovia Baldicero Filomeno (111),,-27.75301,-48.5623,,,,,
1645765327,,Rod. Amaro Antônio Vieira (18),,-27.57887,-48.50483,,,,,
1551063319,,Rua Laurindo Januário da Silveira (38),,-27.62897,-48.47743,,,,,
1709331772,,Rua Ursulina de Senna Castro (01),,-27.59429,-48.58239,,,,,
2083714177,,Avenida dos Dourados (02),,-27.44483,-48.49203,,,,,
1836110241,,Rodovia Antônio Luiz Moura Gonzaga (15),,-27.64364,-48.47561,,,,,
2405632341,,Rodovia Admar Gonzaga (12),,-27.60036,-48.48158,,,,,
2404247763,,2404247763,,-27.596,-48.4628,,,,,
1457087091,,Rua Delminda Silveira (02),,-27.57571,-48.53059,,,,,
1460258488,,Rua Santos Saraiva (03),,-27.59806,-48.58722,,,,,
1775736262,,1775736262,,-27.65924,-48.48044,,,,,
1781725091,,Rodovia SC-401 (45),,-27.51308,-48.51336,,,,,
2404247770,,2404247770,,-27.62875,-48.47744,,,,,
1842935327,,Rua do Gramal (04),,-27.6865,-48.49635,,,,,
1403927012,,Avenida Pequeno Príncipe (03),,-27.67575,-48.50136,,,,,
1716524402,,Joaquina,,-27.62806,-48.4481,,,,,
2304001845,,Rodovia João Paulo (06),,-27.55925,-48.51607,,,,,
1433191575,,Rua Lauro Linhares (04),,-27.58678,-48.52471,,,,,
1773913264,,Rua Bocaiúva (01),,-27.58413,-48.54502,,,,,
2035067660,,2035067660,,-27.59738,-48.64531,,,,,
1465572185,,1465572185,,-27.43419,-48.45669,,,,,
1681023427,,Avenida das Rendeiras (15),,-27.60623,-48.46291,,,,,
876374573,,Rua Lauro Linhares (13),,-27.5891,-48.52239,,,,,
1483652009,,Rua Desembargador Vitor Lima (08),,-27.59733,-48.52217,,,,,
1640685518,,Rua Silva Jardim (02),,-27.60917,-48.54835,,,,,
1746649749,,1746649749,,-27.60503,-48.59447,,,,,
1459292287,,1459292287,,-27.68562,-48.49083,,,,,
2393967250,,Rodovia Baldicero Filomeno (116),,-27.74327,-48.55832,,,,,
1757813167,,1757813167,,-27.67323,-48.48543,,,,,
1424653175,,Rua João Motta Espezim (03),,-27.60871,-48.5327,,,,,
1760536515,,1760536515,,-27.6835,-48.51007,,,,,
1832707267,,1832707267,,-27.45808,-48.45717,,,,,
1681023387,,Rodovia Jornalista Manoel de Menezes (02),,-27.60347,-48.43569,,,,,
1681047341,,Rua Laurindo Januário da Silveira (37),,-27.62722,-48.47954,,,,,
1828597579,,1828597579,,-27.78049,-48.52251,,,,,
1459292300,,Avenida Pequeno Príncipe (08),,-27.68272,-48.49139,,,,,
1422037553,,Avenida Pequeno Príncipe (21),,-27.67198,-48.50418,,,,,
1702065653,,Ponto Final Canto dos Araçás,,-27.58581,-48.46122,,,,,
876374507,,Avenida Madre Benvenuta (05),,-27.59186,-48.51697,,,,,
2308337196,,2308337196,,-27.59798,-48.49886,,,,,
1681023388,,Rua Altamiro Barcelos Dutra (14),,-27.58179,-48.43483,,,,,
1681023405,,Rua Altamiro Barcelos Dutra (04),,-27.57847,-48.43274,,,,,
2193205460,,Rodovia Baldicero Filomeno (123),,-27.72422,-48.5633,,,,,
2422161957,,Avenida das Nações (02),,-27.43049,-48.45814,,,,,
1746649745,,Rua Joaquim Vaz (01),,-27.60455,-48.62326,,,,,
1723070990,,Avenida Jorge Lacerda (02),,-27.6254746,-48.5256196,,,,,
1832707237,,Rodovia SC-401 (15),,-27.4921,-48.5036,,,,,
2441692621,,Rodovia João Paulo (05),,-27.56184,-48.51595,,,,,
1420498899,,Avenida Pequeno Príncipe (02),,-27.67318,-48.50338,,,,,
2441692653,,Rodovia João Paulo (19),,-27.56712,-48.51529,,,,,
1428539447,,Rua João Motta Espezim (02),,-27.60783,-48.53479,,,,,
2193205498,,2193205498,,-27.72881,-48.5625,,,,,
1460258276,,Rua Governador Ivo Silveira (08),,-27.59982,-48.58901,,,,,
1630777046,,Avenida Campeche (29),,-27.67672,-48.48451,,,,,
2311210203,,2311210203,,-27.50825,-48.5187,,,,,
2067008865,,2067008865,,-27.60744,-48.6284,,,,,
1760536514,,1760536514,,-27.68033,-48.5095,,,,,
2084038583,,2084038583,,-27.70331,-48.53308,,,,,
2183882754,,2183882754,,-27.69876,-48.55055,,,,,
1827531170,,Estrada Rozália Paulina Ferreira (04),,-27.77939,-48.53815,,,,,
2308339851,,2308339851,,-27.59952,-48.4988,,,,,
1457087114,,Rua Rui Barbosa (05),,-27.57475,-48.53696,,,,,
1804951879,,Avenida Madre Benvenuta (10),,-27.59029,-48.51028,,,,,
1832707240,,Rodovia SC-401 (21),,-27.46938,-48.4683,,,,,
2404247811,,2404247811,,-27.70581,-48.50071,,,,,
1440307297,,Avenida Pequeno Príncipe (16),,-27.68117,-48.4933,,,,,
1681023382,,1681023382,,-27.60852,-48.4527,,,,,
1630777051,,Avenida Campeche (31),,-27.68153,-48.48242,,,,,
2442045848,,2442045848,,-27.53658,-48.5047,,,,,
1027390350,,Rua Deputado Antônio Edu Vieira (01),,-27.6009,-48.517,,,,,
2082836642,,Rodovia Virgílio Várzea (21),,-27.55606,-48.49916,,,,,
874900064,,Rua João Pio Duarte Silva (09),,-27.59975,-48.508,,,,,
1850828477,,1850828477,,-27.67365,-48.48386,,,,,
1833402028,,1833402028,,-27.47241,-48.47227,,,,,
1411730990,,Avenida César Seara (05),,-27.60449,-48.52163,,,,,
1528034267,,Avenida Mauro Ramos (01),,-27.59963,-48.54524,,,,,
2401015044,,Avenida dos Búzios (06),,-27.43763,-48.50932,,,,,
1681047334,,Rua Laurindo Januário da Silveira (21),,-27.60266,-48.47584,,,,,
2193205456,,Rodovia Baldicero Filomeno (120),,-27.73187,-48.56179,,,,,
2461093324,,Rodovia SC-403 (21),,-27.43833,-48.41144,,,,,
1428242355,,Rua Deputado Antônio Edu Vieira (07),,-27.61333,-48.52646,,,,,
1832707313,,1832707313,,-27.56155,-48.5036,,,,,
1760536526,,1760536526,,-27.7266,-48.50727,,,,,
1681047332,,Rodovia Antônio Luiz Moura Gonzaga (31),,-27.65778,-48.48709,,,,,
2547761596,,2547761596,,-27.62741,-48.66414,,,,,
2084038564,,Rodovia Baldicero Filomeno (013),,-27.70263,-48.53629,,,,,
1472560261,,Avenida Prefeito Waldemar Vieira (10),,-27.61102,-48.53126,,,,,
1833340939,,Rua Felipe Neves (02),,-27.58886,-48.58539,,,,,
1536573113,,Rua Lauro Linhares (03),,-27.58371,-48.5256,,,,,
1684818730,,Rodovia SC-405 (06),,-27.65742,-48.51056,,,,,
1681023432,,Rua Altamiro Barcelos Dutra (08),,-27.57534,-48.42536,,,,,
2083714335,,2083714335,,-27.44777,-48.53165,,,,,
1760536518,,1760536518,,-27.70748,-48.50684,,,,,
1836110238,,Rodovia Admar Gonzaga (13),,-27.60184,-48.47253,,,,,
1836110246,,Rua Laurindo Januário da Silveira (02),,-27.63101,-48.47429,,,,,
2178991479,,2178991479,,-27.44084,-48.42294,,,,,
2408001502,,Rua Sebastião Laurentino da Silva (10),,-27.60275,-48.5038,,,,,
2547696236,,2547696236,,-27.63132,-48.66327,,,,,
1760536528,,1760536528,,-27.73962,-48.50973,,,,,
1760536532,,1760536532,,-27.74191,-48.50973,,,,,
1839861715,,Rua Tenente Silveira (02),,-27.59449,-48.55345,,,,,
1422503608,,Rodovia SC-405 (39),,-27.66497,-48.5022,,,,,
2084331478,,Rodovia SC-402,,-27.45275,-48.4891,,,,,
2461093335,,Rua Intendente João Nunes Vieira (12),,-27.43942,-48.40269,,,,,
1681047318,,Rua Laurindo Januário da Silveira (36),,-27.62493,-48.48041,,,,,
1715695955,,Rua João Motta Espezim (08),,-27.61135,-48.52957,,,,,
1833401972,,Rodovia SC-401 (33),,-27.46611,-48.46413,,,,,
2395759006,,2395759006,,-27.78434,-48.56925,,,,,
2178991451,,2178991451,,-27.42137,-48.43332,,,,,
1681023435,,1681023435,,-27.60941,-48.44705,,,,,
1749712917,,Via do Contorno Ressacada (04),,-27.6666433,-48.5307651,,,,,
1827531400,,1827531400,,-27.78109,-48.52411,,,,,
1760536517,,1760536517,,-27.69386,-48.51047,,,,,
1828597567,,Estação Caminho dos Açores,,-27.78285,-48.52663,,,,,
1437622864,,Avenida Professor Henrique da Silva Fontes (03),,-27.5906,-48.51604,,,,,
1425157497,,Avenida César Seara (06),,-27.60346,-48.52514,,,,,
1760536505,,Rodovia SC-405 (30),,-27.69238,-48.51035,,,,,
1404551650,,Avenida Pequeno Príncipe (05),,-27.67781,-48.49814,,,,,
1460258168,,Rua Prefeito Dib Cherem (09),,-27.59723,-48.59378,,,,,
1457108797,,Rodovia Admar Gonzaga (19),,-27.60004,-48.48155,,,,,
1460258397,,Rua Governador Ivo Silveira (15A),,-27.59999,-48.58951,,,,,
1760536506,,Rodovia SC-405 (31),,-27.68952,-48.5102,,,,,
1422633048,,Rua Cap. Romualdo de Barros (01),,-27.60773,-48.53069,,,,,
1625344691,,Rua Sebastião Laurentino da Silva (08),,-27.60624,-48.50366,,,,,
1681023391,,Rua Altamiro Barcelos Dutra (10),,-27.57576,-48.4297,,,,,
1681023398,,Rodovia Jornalista Manoel de Menezes (12),,-27.60235,-48.43534,,,,,
1985708057,,Hospital Nereu Ramos,,-27.57706,-48.53399,,,,,
2134414253,,2134414253,,-27.43928,-48.39544,,,,,
2461093317,,Rodovia João Gualberto Soares (79),,-27.44434,-48.40288,,,,,
1831603299,,Avenida Professor Henrique da Silva Fontes (04),,-27.59914,-48.51612,,,,,
2067008757,,2067008757,,-27.60315,-48.63655,,,,,
2178991462,,2178991462,,-27.4307,-48.42261,,,,,
2442045852,,2442045852,,-27.53863,-48.50383,,,,,
2507516061,,2507516061,,-27.76458,-48.51818,,,,,
1746649753,,1746649753,,-27.60151,-48.60762,,,,,
1760536497,,Rodovia SC-405 (21),,-27.69238,-48.51047,,,,,
2083714346,,2083714346,,-27.44886,-48.53518,,,,,
1681023422,,Rua Altamiro Barcelos Dutra (03),,-27.58006,-48.43402,,,,,
1433432670,,Rua João Motta Espezim (07),,-27.61324,-48.52739,,,,,
1746649798,,1746649798,,-27.60741,-48.59233,,,,,
2183882695,,Rodovia Baldicero Filomeno (132),,-27.70959,-48.55978,,,,,
2442045808,,Rodovia João Paulo (03),,-27.56825,-48.51461,,,,,
1749712873,,Avenida Deputado Diomício Freitas (04),,-27.6638841,-48.5385633,,,,,
1254099586,,Rua João Motta Espezim (10),,-27.60875,-48.53235,,,,,
1425790459,,Rua Deputado Antônio Edu Vieira (04),,-27.60839,-48.52097,,,,,
2408001505,,2408001505,,-27.6013,-48.49999,,,,,
1432752473,,Avenida César Seara (03),,-27.60635,-48.52029,,,,,
1681023401,,Rua Altamiro Barcelos Dutra (02),,-27.58222,-48.43472,,,,,
2393967223,,Rodovia Baldicero Filomeno (105A),,-27.76193,-48.57341,,,,,
1472933794,,Avenida Jorge Lacerda (11),,-27.6454638,-48.5218765,,,,,
2067008868,,2067008868,,-27.60459,-48.63529,,,,,
2178991476,,2178991476,,-27.43693,-48.45781,,,,,
1827531296,,1827531296,,-27.76441,-48.51037,,,,,
1797586235,,1797586235,,-27.60767,-48.63326,,,,,
2084331477,,Rodovia SC-402,,-27.44976,-48.48795,,,,,
1685780706,,Avenida Governador Irineu Bornhausen (04),,-27.57311,-48.53933,,,,,
2067008752,,2067008752,,-27.60624,-48.63332,,,,,
2404247789,,2404247789,,-27.6915,-48.4901,,,,,
2493693716,,Rua João Pacheco da Costa (08),,-27.59953,-48.46946,,,,,
1424636474,,Rua Cap. Romualdo de Barros (05),,-27.60279,-48.52669,,,,,
1681023392,,Rua Orlando Chaplin (01),,-27.57578,-48.42427,,,,,
2442045843,,Rodovia Virgílio Várzea (19),,-27.55272,-48.4962,,,,,
1460258441,,Rua Governador Ivo Silveira (16),,-27.59994,-48.58684,,,,,
2441692654,,Rodovia João Paulo (20),,-27.56828,-48.51471,,,,,
2069147355,,2069147355,,-27.50653,-48.52127,,,,,
2300104003,,Rod. Amaro Antonio Veira (16),,-27.58314,-48.5006,,,,,
2405632344,,Rua Hyppólito do Valle Pereira (05),,-27.60584,-48.47496,,,,,
2069132678,,2069132678,,-27.49987,-48.52415,,,,,
1459256372,,Avenida Mauro Ramos (08),,-27.58813,-48.54314,,,,,
1640685497,,Rua Silva Jardim (03),,-27.61187,-48.55007,,,,,
1681023449,,Rodovia Jornalista Manoel de Menezes (01),,-27.60619,-48.44016,,,,,
2308340855,,Estação Executivos,,-27.60117,-48.49965,,,,,
2401015049,,Avenida dos Búzios (15),,-27.44063,-48.49442,,,,,
2401015101,,2401015101,,-27.43979,-48.48602,,,,,
2461093322,,Rodovia SC-403 (11),,-27.44382,-48.4191,,,,,
1424636456,,Rua Des. Vitor Lima - 2,,-27.59762,-48.52414,,,,,
1605172497,,1605172497,,-27.51834,-48.63811,,,,,
1492870600,,Avenida Jornalista Rubens de Arruda Ramos (07),,-27.5875,-48.55672,,,,,
1707786053,,Rua Liberato Bittencourt (03),,-27.58623,-48.58181,,,,,
1469367888,,Rua Doutor Heitor Blum (03),,-27.59255,-48.58231,,,,,
2422161955,,Avenida Milton Leite da Costa (02),,-27.43295,-48.46037,,,,,
1827531293,,1827531293,,-27.75741,-48.50981,,,,,
2461093340,,Servidão Luciano Garcia (02),,-27.45658,-48.40646,,,,,
1630777050,,1630777050,,-27.66974,-48.48208,,,,,
1757813156,,1757813156,,-27.66744,-48.48708,,,,,
1788802349,,Rodovia Admar Gonzaga (09),,-27.5894,-48.49536,,,,,
2507516060,,2507516060,,-27.76461,-48.51814,,,,,
1760536501,,Rodovia SC-405 (24A),,-27.70145,-48.51023,,,,,
1746649743,,1746649743,,-27.60968,-48.62841,,,,,
2404247812,,2404247812,,-27.70596,-48.50163,,,,,
910973322,,Rodovia SC-401 (49),,-27.53691,-48.50911,,,,,
2083714182,,Avenida dos Dourados (03),,-27.44457,-48.49495,,,,,
2178991490,,Rodovia SC-403 (30),,-27.45206,-48.44743,,,,,
2461093325,,Rodovia SC-403 (22),,-27.44388,-48.4195,,,,,
2193205448,,Rodovia Baldicero Filomeno (112),,-27.7513,-48.56033,,,,,
2067230181,,2067230181,,-27.59448,-48.61563,,,,,
2178991483,,Rodovia SC-403 (23),,-27.44742,-48.42525,,,,,
2308338269,,2308338269,,-27.59907,-48.49894,,,,,
1833401996,,Rodovia SC-401 (40),,-27.48645,-48.49944,,,,,
1411725542,,Rodovia SC-405 (14),,-27.67092,-48.50598,,,,,
2405632343,,Rodovia Admar Gonzaga (22),,-27.58928,-48.49521,,,,,
1836110434,,1836110434,,-27.65572,-48.48393,,,,,
2401015052,,Avenida dos Búzios,,-27.44115,-48.48718,,,,,
2422161954,,Avenida Milton Leite da Costa (01),,-27.43045,-48.46049,,,,,
2507512455,,Ponto final costa de cima,,-27.77051,-48.52586,,,,,
2408001492,,Rua João Pio Duarte Silva (12),,-27.60032,-48.51492,,,,,
1681023393,,Avenida das Rendeiras (14),,-27.6073,-48.46046,,,,,
1681047328,,Rua Laurindo Januário da Silveira (39),,-27.6297,-48.47615,,,,,
2422161960,,Rodovia SC-401 (29),,-27.44271,-48.45791,,,,,
2067232854,,2067232854,,-27.58797,-48.61279,,,,,
1746649802,,1746649802,,-27.607,-48.62655,,,,,
2067232851,,2067232851,,-27.58371,-48.61369,,,,,
2069058769,,2069058769,,-27.49408,-48.52618,,,,,
2395758990,,Rodovia Baldicero Filomeno (085A),,-27.80571,-48.5619,,,,,
2461093343,,2461093343,,-27.44916,-48.4368,,,,,
1428242358,,Rua Deputado Antônio Edu Vieira (06),,-27.61076,-48.52434,,,,,
2007442259,,2007442259,,-27.70434,-48.52748,,,,,
2422161970,,Rua Apóstolo Paschoal (03),,-27.42871,-48.45795,,,,,
1757813132,,1757813132,,-27.66152,-48.49645,,,,,
2007442234,,Rodovia Baldicero Filomeno (149),,-27.70441,-48.52752,,,,,
1794844640,,1794844640,,-27.63945,-48.66719,,,,,
2393967277,,2393967277,,-27.76381,-48.57454,,,,,
1450589838,,Avenida Mauro Ramos (13),,-27.6004,-48.54576,,,,,
1781725087,,Rodovia SC-401 (11),,-27.5206,-48.51439,,,,,
2404247743,,Rua Rita Lourenço da Silveira (02),,-27.60169,-48.46391,,,,,
2522317682,,2522317682,,-27.77096,-48.5059,,,,,
2193205451,,Rodovia Baldicero Filomeno (114),,-27.7473,-48.55948,,,,,
1749712891,,Avenida Deputado Diomício Freitas (07),,-27.6634181,-48.544744,,,,,
1681047331,,Rua Laurindo Januário da Silveira (28),,-27.61239,-48.48489,,,,,
1757813168,,1757813168,,-27.67418,-48.4844,,,,,
1827531298,,1827531298,,-27.76919,-48.5076,,,,,
2422161966,,Rua Apóstolo Paschoal (02),,-27.4297,-48.45251,,,,,
2442045810,,Rodovia João Paulo (04A),,-27.5639,-48.51662,,,,,
1457087096,,Rua Delminda Silveira (03),,-27.57737,-48.52726,,,,,
1707846007,,Avenida Jorge Lacerda (15),,-27.6390829,-48.5219081,,,,,
2573479602,,Rodovia Amaro Antônio Vieira (05),,-27.57885,-48.50495,,,,,
1457087084,,Avenida Rubens de Arruda Ramos (05),,-27.58175,-48.54423,,,,,
1468094623,,Rua Governador Ivo Silveira (03A),,-27.59784,-48.57747,,,,,
2178991460,,2178991460,,-27.42603,-48.4398,,,,,
1493545020,,Rodovia Baldicero Filomeno (31),,-27.71806,-48.56416,,,,,
1833340941,,Rua Felipe Neves (14),,-27.58889,-48.58548,,,,,
2067008780,,2067008780,,-27.60734,-48.62843,,,,,
1464702459,,Rodovia SC-401 (52A),,-27.55331,-48.5003,,,,,
1456368394,,Rodovia Antônio Luiz Moura Gonzaga (34),,-27.66037,-48.49405,,,,,
2083714245,,Rodovia SC-402 (05),,-27.45201,-48.48828,,,,,
2404247775,,2404247775,,-27.68286,-48.49212,,,,,
1840421555,,Rua Tenente Silveira (01),,-27.59594,-48.55106,,,,,
1749712921,,Via do Contorno Ressacada (05),,-27.6648753,-48.5302718,,,,,
2007442243,,Rodovia Baldicero Filomeno (156),,-27.70811,-48.51346,,,,,
2422161962,,Rua Apóstolo Paschoal (01),,-27.42965,-48.45093,,,,,
1429425791,,Rodovia SC-405 (15),,-27.67278,-48.50703,,,,,
1471840101,,Rodovia SC-405 (47),,-27.65236,-48.51716,,,,,
1027390372,,Rua Delfino Conti (01),,-27.59929,-48.51903,,,,,
2084331475,,Rodovia SC-402 (08),,-27.44649,-48.48739,,,,,
2178991455,,2178991455,,-27.42401,-48.42844,,,,,
2035067726,,2035067726,,-27.59433,-48.64239,,,,,
1681023421,,Rodovia Jornalista Manoel de Menezes (04),,-27.59667,-48.43584,,,,,
2442045814,,Rodovia João Paulo (09),,-27.55419,-48.50707,,,,,
1493545064,,Rodovia Baldicero Filomeno (32),,-27.71952,-48.56417,,,,,
1836110251,,Rua Laurindo Januário da Silveira (11),,-27.61987,-48.48397,,,,,
2193205527,,2193205527,,-27.75198,-48.56087,,,,,
2441692616,,Rodovia João Paulo (01),,-27.57081,-48.51363,,,,,
1681023384,,Rodovia Jornalista Manoel de Menezes (08),,-27.58711,-48.4365,,,,,
1630777037,,1630777037,,-27.66976,-48.48197,,,,,
1840421574,,Avenida Professor Othon Gama D'Eça (04),,-27.58995,-48.55199,,,,,
1027390356,,Rua Deputado Antônio Edu Vieira (02),,-27.6037,-48.51712,,,,,
1424662090,,Rodovia SC-405 (01),,-27.64941,-48.51957,,,,,
1468492312,,1468492312,,-27.67604,-48.48659,,,,,
1707846075,,Avenida Jorge Lacerda (17),,-27.6361251,-48.5226567,,,,,
874900338,,Rodovia Admar Gonzaga (24),,-27.58419,-48.50214,,,,,
1760536500,,Rodovia SC-405 (24),,-27.70592,-48.50878,,,,,
1457087104,,Rua Delminda SIlveira (05),,-27.57564,-48.53041,,,,,
1760536495,,Rodovia SC-405 (19),,-27.6836,-48.51026,,,,,
2395758987,,Rodovia Baldicero Filomeno (034),,-27.8096,-48.56025,,,,,
2503032375,,2503032375,,-27.65828,-48.48939,,,,,
2084038563,,Estação Ribeirão,,-27.70153,-48.53712,,,,,
1828597573,,1828597573,,-27.77916,-48.5382,,,,,
910973312,,Rodovia SC-401 (08A),,-27.54119,-48.50509,,,,,
1605151184,,1605151184,,-27.52127,-48.63771,,,,,
2082591437,,Avenida Rio Branco (03),,-27.59169,-48.55328,,,,,
2178991453,,2178991453,,-27.42291,-48.43595,,,,,
2183882731,,Rodovia Baldicero Filomeno (140),,-27.69835,-48.54799,,,,,
2442045807,,Rodovia João Paulo (02),,-27.56981,-48.51411,,,,,
2395758988,,Rodovia Baldicero Filomeno (083),,-27.8112,-48.55912,,,,,
2404247739,,Rua João Henrique Gonçalves,,-27.59433,-48.46153,,,,,
2083619677,,Ponto Final Linha 271,,-27.45033,-48.53887,,,,,
1760536521,,1760536521,,-27.71662,-48.50996,,,,,
876374514,,Avenida Madre Benvenuta (04),,-27.5924,-48.51954,,,,,
2404247805,,2404247805,,-27.7028,-48.49708,,,,,
2069155323,,2069155323,,-27.50765,-48.51982,,,,,
1422633045,,Rua Cap. Romualdo de Barros (09),,-27.60776,-48.53078,,,,,
2141922897,,Estr. Dom João Becker (3),,-27.44083,-48.38498,,,,,
1468492389,,1468492389,,-27.67809,-48.48819,,,,,
1681047345,,Rodovia Antônio Luiz Moura Gonzaga (36),,-27.66138,-48.49936,,,,,
1832707239,,Rodovia SC-401 (17),,-27.48445,-48.49719,,,,,
1836110298,,1836110298,,-27.61004,-48.48407,,,,,
2183882711,,Rodovia Baldicero Filomeno (135),,-27.70445,-48.55595,,,,,
2404247781,,2404247781,,-27.68524,-48.4955,,,,,
1681047342,,Rodovia Antônio Luiz Moura Gonzaga (22),,-27.64378,-48.47593,,,,,
1795102093,,1795102093,,-27.64601,-48.66978,,,,,
2083714224,,Rodovia SC-401 (15A),,-27.48802,-48.50054,,,,,
2422161975,,Rua Apóstolo Paschoal (03),,-27.42979,-48.45502,,,,,
2441692650,,Rodovia João Paulo (16),,-27.56001,-48.51643,,,,,
1424233271,,Rua Desembargador Vitor Lima (01),,-27.59711,-48.52225,,,,,
1424636477,,Rua Des. Vitor Lima (04),,-27.60184,-48.52657,,,,,
1802197375,,1802197375,,-27.64061,-48.67275,,,,,
1685780710,,1685780710,,-27.62448,-48.52582,,,,,
1833402029,,1833402029,,-27.47704,-48.48075,,,,,
2178991484,,Rodovia SC-403 (25),,-27.44817,-48.43241,,,,,
1427179796,,Avenida Jorge Lacerda (23),,-27.6228755,-48.5266623,,,,,
2404247804,,2404247804,,-27.70114,-48.50057,,,,,
1429127163,,1429127163,,-27.64916,-48.51949,,,,,
2067008773,,2067008773,,-27.60634,-48.63326,,,,,
2083714376,,2083714376,,-27.44961,-48.5369,,,,,
1577035677,,Avenida Governador Ivo Silveira (02),,-27.5938,-48.57185,,,,,
1749712898,,Avenida Deputado Diomício Freitas (10),,-27.6639114,-48.5399529,,,,,
1781725082,,Avenida Irineu Bornhausen,,-27.57727,-48.54333,,,,,
2461093318,,Rodovia SC-403 (02),,-27.45261,-48.45006,,,,,
1681023434,,Rua Altamiro Barcelos Dutra (11),,-27.57639,-48.43131,,,,,
2573507845,,2573507845,,-27.58411,-48.49904,,,,,
1836110253,,Rua Laurindo Januário da Silveira (13),,-27.61571,-48.48455,,,,,
2083714357,,2083714357,,-27.44895,-48.53514,,,,,
2408001490,,Rua João Pio Duarte Silva (06A),,-27.60076,-48.50123,,,,,
1707846038,,Avenida Jorge Lacerda (14),,-27.6406527,-48.5218897,,,,,
2422161995,,2422161995,,-27.42878,-48.45005,,,,,
2573479593,,Rodovia Amaro Antônio Vieira (04),,-27.57674,-48.50654,,,,,
1460258251,,Rua Santos Saraiva (04),,-27.59751,-48.58935,,,,,
2395759011,,2395759011,,-27.79064,-48.55944,,,,,
2461093313,,Rodovia João Gualberto Soares (76),,-27.45273,-48.40439,,,,,
1681023447,,Rodovia Jornalista Manoel de Menezes (06),,-27.58885,-48.43593,,,,,
2308333598,,2308333598,,-27.59442,-48.49326,,,,,
2461093330,,Rua Graciliano Manoel Gomes (06),,-27.4528,-48.40892,,,,,
872980957,,Rua Lauro Linhares (16),,-27.58224,-48.52624,,,,,
2084331470,,Avenida dos Dourados (07),,-27.44451,-48.49806,,,,,
874900058,,Rua João Pio Duarte Silva (07),,-27.60115,-48.5038,,,,,
1459256365,,Avenida Mauro Ramos (11),,-27.59383,-48.54347,,,,,
1781725099,,Rodovia SC-401 (55),,-27.56769,-48.50958,,,,,
1842935215,,Rua do Gramal (02),,-27.68403,-48.4947,,,,,
1424562462,,Rodovia SC-405 (09),,-27.6594,-48.50407,,,,,
1760536520,,1760536520,,-27.71279,-48.51053,,,,,
1781725092,,Rodovia SC-401 (47),,-27.52089,-48.51465,,,,,
1836110257,,Rua Laurindo Januário da Silveira (19),,-27.60393,-48.47898,,,,,
2178991482,,2178991482,,-27.44693,-48.4241,,,,,
2401015105,,2401015105,,-27.44033,-48.49811,,,,,
2404247808,,2404247808,,-27.70449,-48.49823,,,,,
876374623,,Rua Lauro Linhares 9,,-27.59691,-48.52059,,,,,
1681023431,,Rua Altamiro Barcelos Dutra (12),,-27.57797,-48.43259,,,,,
1681047327,,Rodovia Antônio Luiz Moura Gonzaga (32),,-27.65816,-48.48938,,,,,
1428535905,,Rua Desembargador Vitor Lima (05),,-27.60141,-48.52638,,,,,
2178991478,,2178991478,,-27.43943,-48.42324,,,,,
2404247744,,Rua Rita Lourenço da Silveira (03),,-27.59924,-48.46405,,,,,
1836110255,,Rua Laurindo Januário da Silveira (17),,-27.60731,-48.48255,,,,,
2178991450,,Rodovia SC-401 (26),,-27.44186,-48.45767,,,,,
1841280960,,Avenida Hercílio Luz (04),,-27.59364,-48.54455,,,,,
1836110250,,Rua Laurindo Januário da Silveira (10),,-27.62142,-48.48346,,,,,
1656229352,,Rua Rua Paschoal Apóstolo Pítsica (02),,-27.57336,-48.52969,,,,,
1827531340,,1827531340,,-27.7763,-48.50651,,,,,
2408001500,,Rua Sebastião Laurentino da Silva (07),,-27.60729,-48.50413,,,,,
1781725086,,Rodovia SC-401 (06),,-27.54826,-48.49922,,,,,
1715695979,,Rua João Motta Espezim (05),,-27.61143,-48.52966,,,,,
1776361111,,Rua Almirante Alvim (01),,-27.59082,-48.54588,,,,,
2408001487,,Rua João Pio Duarte Silva (04),,-27.59981,-48.50848,,,,,
2395758998,,Rodovia Baldicero Filomeno (095),,-27.78716,-48.56453,,,,,
874900340,,Rodovia Admar Gonzaga (06),,-27.58441,-48.50237,,,,,
1656229345,,1656229345,,-27.57206,-48.53363,,,,,
1865178022,,Rodovia Admar Gonzaga (02),,-27.5777,-48.51173,,,,,
1668994869,,Rua Manoel Severino de Oliveira (01),,-27.60443,-48.4674,,,,,
2283641239,,2283641239,,-27.4452,-48.39812,,,,,
2404247740,,Rua João Pacheco da Costa (01),,-27.59869,-48.4655,,,,,
2408001488,,Rua João Pio Duarte Silva (05),,-27.60044,-48.50619,,,,,
1715695954,,Avenida Jorge Lacerda (03),,-27.6277519,-48.5247123,,,,,
2319081963,,2319081963,,-27.58284,-48.4965,,,,,
1681023420,,Rodovia Jornalista Manoel de Menezes (12),,-27.60331,-48.43571,,,,,
2408001484,,Rua Dom Wilson Laus Schmidt (02),,-27.60495,-48.50406,,,,,
2408001489,,Rua João Pio Duarte Silva (06),,-27.60133,-48.50395,,,,,
1666280640,,1666280640,,-27.60818,-48.59387,,,,,
1865178007,,Avenida Madre Benvenuta (08),,-27.59186,-48.51621,,,,,
2084331467,,Avenida das Raias (01),,-27.44654,-48.50168,,,,,
1453300946,,Avenida Pequeno Príncipe (11),,-27.68718,-48.48536,,,,,
2193205453,,Rodovia Baldicero Filomeno (115),,-27.74529,-48.55909,,,,,
1681023407,,Avenida das Rendeiras (03),,-27.60795,-48.45667,,,,,
1749712916,,Via do Contorno Ressacada (03),,-27.6679177,-48.5318164,,,,,
1775736233,,Rua José Maria da Luz (04),,-27.61225,-48.54788,,,,,
1749712929,,1749712929,,-27.6632636,-48.5344902,,,,,
1457087079,,Rua Visconde de Ouro Preto (01),,-27.59351,-48.54719,,,,,
1457087067,,Rua Rui Barbosa (03),,-27.5741,-48.53479,,,,,
2134414173,,2134414173,,-27.43874,-48.39364,,,,,
1674562473,,Avenida Jorge Lacerda (06),,-27.636165,-48.5227314,,,,,
2461093327,,Rua Graciliano Manoel Gomes (03),,-27.44478,-48.40904,,,,,
1827531159,,Estrada Rozália Paulina Ferreira (01),,-27.78464,-48.53429,,,,,
2067008809,,2067008809,,-27.60441,-48.6355,,,,,
2405632340,,Rodovia Admar Gonzaga (11),,-27.59306,-48.4933,,,,,
1424653185,,Rua Jerônimo José Dias (02),,-27.61059,-48.53996,,,,,
2084038571,,2084038571,,-27.70108,-48.53788,,,,,
1464702413,,Rodovia SC-401 (05A),,-27.55314,-48.49975,,,,,
1762149817,,Avenida Professor Othon Gama D'Eça (03),,-27.58811,-48.55135,,,,,
2404247737,,Rua João Henrique Gonçalves (03),,-27.59604,-48.46265,,,,,
1448000288,,Avenida Professor Henrique da Silva Fontes (06),,-27.58793,-48.51834,,,,,
1827531180,,Rua Rozália Paulina Ferreira,,-27.77539,-48.53716,,,,,
1431106907,,Rua Santos Saraiva (12),,-27.59617,-48.58298,,,,,
1656229323,,Rua Idalina Pereira dos Santos (01),,-27.57619,-48.52607,,,,,
1723494408,,Avenida Prefeito Osmar Cunha (01),,-27.59249,-48.55154,,,,,
1746649765,,1746649765,,-27.61612,-48.6272,,,,,
1866517313,,1866517313,,-27.60597,-48.59293,,,,,
2442045832,,Rodovia Virgílio Várzea (09),,-27.54111,-48.50114,,,,,
1865178006,,Avenida Madre Benvenuta (07),,-27.59261,-48.51997,,,,,
2461093337,,Rua Intendente João Nunes Vieira (14),,-27.43938,-48.40727,,,,,
1429425062,,Rodovia SC-405 (36),,-27.67218,-48.50663,,,,,
1746649722,,1746649722,,-27.60254,-48.61464,,,,,
2082591435,,Avenida Hercílio Luz (03),,-27.59635,-48.54534,,,,,
2183882737,,Rodovia Baldicero Filomeno (143),,-27.70041,-48.54292,,,,,
2422161956,,Avenida das Nações (01),,-27.4331,-48.45803,,,,,
2053049634,,2053049634,,-27.70618,-48.50485,,,,,
2067232848,,2067232848,,-27.59349,-48.61523,,,,,
1457087106,,Rua Lauro Linhares (01),,-27.58007,-48.52641,,,,,
1775736234,,Rua Jerônimo José Dias (01),,-27.61251,-48.54133,,,,,
2404247765,,2404247765,,-27.59858,-48.46605,,,,,
1746649747,,1746649747,,-27.60096,-48.61203,,,,,
2053049639,,2053049639,,-27.70633,-48.50183,,,,,
2193205450,,Rodovia Baldicero Filomeno (113),,-27.74938,-48.56048,,,,,
2067166894,,2067166894,,-27.59295,-48.63539,,,,,
1775736231,,Rua Silva Jardim (05),,-27.60965,-48.54825,,,,,
2395759021,,2395759021,,-27.81397,-48.55895,,,,,
1453290660,,Avenida Pequeno Príncipe (14),,-27.68366,-48.48988,,,,,
1828597569,,Estrada Rozália Paulina Ferreira (06),,-27.78085,-48.53754,,,,,
1746649774,,1746649774,,-27.60015,-48.60639,,,,,
1827531295,,1827531295,,-27.76177,-48.5106,,,,,
2067008804,,2067008804,,-27.60233,-48.60387,,,,,
2069132300,,2069132300,,-27.49861,-48.52419,,,,,
1473023940,,1473023940,,-27.60413,-48.5479,,,,,
1674562476,,Rodovia SC-405 (08),,-27.65784,-48.50529,,,,,
1985708066,,1985708066,,-27.57555,-48.53473,,,,,
2067230195,,2067230195,,-27.59029,-48.61332,,,,,
2461093338,,Rua Intendente João Nunes Vieira (15),,-27.43941,-48.41064,,,,,
1457087122,,Avenida Mauro Ramos (07),,-27.58457,-48.54431,,,,,
1467188949,,Rua Pedro Ivo (01),,-27.59614,-48.55548,,,,,
2395758992,,Rodovia Baldicero Filomeno (087),,-27.80186,-48.5656,,,,,
1674562475,,1674562475,,-27.6429329,-48.5220264,,,,,
1666280636,,1666280636,,-27.60905,-48.59365,,,,,
1757813142,,1757813142,,-27.66339,-48.49043,,,,,
1681023428,,Rodovia Jornalista Manoel de Menezes (07),,-27.58615,-48.43648,,,,,
1681047317,,Rodovia Antônio Luiz Moura Gonzaga (28),,-27.65408,-48.48131,,,,,
2395759026,,2395759026,,-27.81516,-48.56026,,,,,
2408001494,,Rua Sebastião Laurentino da Silva (01),,-27.60288,-48.50394,,,,,
2401015035,,Alameda César Nascimento (01),,-27.43964,-48.48765,,,,,
1804951872,,Avenida Madre Benvenuta (12),,-27.58832,-48.50602,,,,,
2401015037,,Alameda César Nascimento (03),,-27.43919,-48.49315,,,,,
1681023446,,Rua Altamiro Barcelos Dutra (09),,-27.57536,-48.42738,,,,,
2183882819,,2183882819,,-27.70074,-48.54578,,,,,
1440299596,,Avenida Pequeno Príncipe (17),,-27.67959,-48.4955,,,,,
2404247742,,Rua João Pacheco da Costa (11),,-27.60036,-48.4713,,,,,
1804951877,,Avenida Madre Benvenuta (11),,-27.58973,-48.50898,,,,,
2461093312,,Rodovia João Gualberto Soares (75),,-27.45593,-48.40487,,,,,
1404551666,,Avenida Pequeno Príncipe (18),,-27.67781,-48.49793,,,,,
876374606,,Rua Lauro Linhares (06),,-27.5895,-48.52239,,,,,
1681023423,,Avenida das Rendeiras (09),,-27.60936,-48.44277,,,,,
2163686428,,Rodovia Amaro Antônio Vieira (01),,-27.57651,-48.51119,,,,,
1760536494,,Rodovia SC-405 (18),,-27.68045,-48.5097,,,,,
2035067723,,2035067723,,-27.59426,-48.64253,,,,,
1027390339,,Rua Deputado Antônio Edu Vieira (03),,-27.60568,-48.51797,,,,,
1681023438,,Rua Vereador Osni Ortiga (06),,-27.62626,-48.46798,,,,,
1681023452,,Rodovia Antônio Luiz Moura Gonzaga (26),,-27.6511,-48.47888,,,,,
2452117771,,2452117771,,-27.57322,-48.51245,,,,,
2395759001,,2395759001,,-27.77464,-48.57434,,,,,
2404247745,,Rua Rita Lourenço da Silveira (04),,-27.59934,-48.46421,,,,,
1674562478,,Avenida Jorge Lacerda (05),,-27.6343977,-48.523514,,,,,
2401015046,,Avenida dos Búzios (07),,-27.43633,-48.51199,,,,,
1836110254,,Rua Laurindo Januário da Silveira (14),,-27.61248,-48.48477,,,,,
1681047319,,Rua Laurindo Januário da Silveira (24),,-27.60371,-48.47894,,,,,
1865178029,,Rodovia Admar Gonzaga (27),,-27.57907,-48.50567,,,,,
1421417656,,Avenida Prefeito Waldemar Vieira (04),,-27.61274,-48.52849,,,,,
1760536493,,Rodovia SC-405 (17),,-27.67812,-48.50894,,,,,
2408001499,,Rua Sebastião Laurentino da Silva (05A),,-27.60929,-48.50631,,,,,
1828597619,,Estação Costa de Dentro,,-27.78541,-48.53127,,,,,
2461093315,,Rodovia João Gualberto Soares (78),,-27.44677,-48.40338,,,,,
1659743407,,Rua Henrique Vera do Nascimento (03),,-27.60447,-48.46462,,,,,
1728000002,,1728000002,,-27.43933,-48.38899,,,,,
1656229339,,Rua Comandante Constantino Nicolau Spyrides (03),,-27.57442,-48.54025,,,,,
1645765322,,Rodovia Admar Gonzaga (05),,-27.58092,-48.50446,,,,,
1794951584,,1794951584,,-27.64733,-48.67181,,,,,
2134414263,,2134414263,,-27.43927,-48.39712,,,,,
1424636421,,Rua Cap. Romualdo de Barros (08),,-27.60648,-48.53063,,,,,
1457087074,,Rua Frei Caneca (02),,-27.58019,-48.54341,,,,,
2193205492,,2193205492,,-27.72573,-48.56356,,,,,
1457108793,,Avenida Mauro Ramos (02),,-27.59752,-48.5443,,,,,
2193205504,,2193205504,,-27.73714,-48.56118,,,,,
1794795932,,1794795932,,-27.6417,-48.67516,,,,,
1827531249,,1827531249,,-27.70745,-48.50695,,,,,
1674562477,,1674562477,,-27.65253,-48.51719,,,,,
2193205515,,Rodovia Baldicero Filomeno (117),,-27.74118,-48.55788,,,,,
1760536524,,1760536524,,-27.71739,-48.5047,,,,,
2404247780,,2404247780,,-27.68519,-48.49536,,,,,
1804951878,,Avenida Madre Benvenuta (03A),,-27.58908,-48.50808,,,,,
1702065934,,Rua João Henrique (08),,-27.58756,-48.46125,,,,,
1903375223,,Via do Contorno Ressacada (06),,-27.6630491,-48.5290841,,,,,
2461093333,,Rua Intendente João Nunes Vieira (03),,-27.43948,-48.40484,,,,,
1403927011,,Avenida Pequeno Príncipe (20),,-27.67573,-48.50112,,,,,
1681023413,,Rodovia Jornalista Manoel de Menezes (09),,-27.58886,-48.43605,,,,,
2461093348,,2461093348,,-27.45209,-48.44705,,,,,
1428535878,,Rua Desembargador Vitor Lima (07),,-27.59788,-48.52417,,,,,
2461093331,,Rua Graciliano Manoel Gomes (07),,-27.4544,-48.40891,,,,,
1431106905,,Rua Santos Saraiva (01),,-27.59612,-48.58308,,,,,
2082591440,,Rua Dom Joaquim (01),,-27.59085,-48.54671,,,,,
2467098993,,2467098993,,-27.40984,-48.42443,,,,,
1460258173,,Rua Santos Saraiva (05),,-27.59667,-48.59153,,,,,
1468094717,,Avenida Governador Ivo Silveira (03),,-27.59493,-48.57363,,,,,
1865178004,,Avenida Madre Benvenuta (03),,-27.5881,-48.506,,,,,
2067008783,,2067008783,,-27.60206,-48.63746,,,,,
2400978319,,2400978319,,-27.44859,-48.48738,,,,,
1827531272,,1827531272,,-27.74843,-48.51082,,,,,
2516175966,,2516175966,,-27.59976,-48.52051,,,,,
1424653168,,Rua Cap. Romualdo de Barros (03),,-27.6052,-48.52982,,,,,
1453290631,,Avenida Pequeno Príncipe (09),,-27.68386,-48.4899,,,,,
2461093320,,Rodovia SC-403 (09),,-27.44782,-48.4277,,,,,
1827531328,,1827531328,,-27.77325,-48.50528,,,,,
1404551660,,Avenida Pequeno Príncipe (19),,-27.67654,-48.49997,,,,,
1457087109,,Avenida Mauro Ramos (04),,-27.59347,-48.54326,,,,,
2084038566,,Rodovia Baldicero Filomeno (147),,-27.7034,-48.53308,,,,,
1699939774,,Rua João Motta Espezim (06),,-27.6102,-48.53085,,,,,
1425796984,,Rua Deputado Antônio Edu Vieira (09),,-27.61084,-48.52428,,,,,
1630777042,,Avenida Campeche (30),,-27.67851,-48.48346,,,,,
2283641240,,2283641240,,-27.4429,-48.39762,,,,,
2441692649,,Rodovia João Paulo (15),,-27.55783,-48.51533,,,,,
1746649810,,1746649810,,-27.60689,-48.5943,,,,,
2467099000,,2467099000,,-27.42087,-48.43342,,,,,
1453290639,,Avenida Pequeno Príncipe (12),,-27.68713,-48.48521,,,,,
1681047333,,Rua Laurindo Januário da Silveira (41),,-27.63229,-48.47262,,,,,
1453290648,,Avenida Pequeno Príncipe (10),,-27.68599,-48.487,,,,,
1457087092,,Rua Delminda Silveira (04),,-27.5769,-48.52763,,,,,
2408001501,,Rua Sebastião Laurentino da Silva (09),,-27.60366,-48.50294,,,,,
2461093314,,Rodovia João Gualberto Soares (77),,-27.44964,-48.40424,,,,,
1827531273,,1827531273,,-27.75048,-48.50657,,,,,
1458909402,,Avenida Pequeno Príncipe (15),,-27.68281,-48.49112,,,,,
1605153874,,1605153874,,-27.52149,-48.63702,,,,,
2395758996,,Rodovia Baldicero Filomeno (093),,-27.78941,-48.56048,,,,,
1781725104,,Rodovia SC-401 (12),,-27.5148,-48.51319,,,,,
2083714174,,Avenida Jacarandá (09),,-27.44764,-48.53037,,,,,
1833401971,,Rodovia João Paulo (22),,-27.57199,-48.51306,,,,,
1738827930,,Largo Benjamin Constant (01),,-27.58934,-48.54568,,,,,
1749712883,,Avenida Deputado Diomício Freitas (06),,-27.663579,-48.5426873,,,,,
2178991454,,2178991454,,-27.42292,-48.43005,,,,,
2012743287,,2012743287,,-27.57127,-48.50856,,,,,
1681047322,,Rodovia Antônio Luiz Moura Gonzaga (20),,-27.63583,-48.47235,,,,,
1746649808,,1746649808,,-27.60119,-48.61395,,,,,
874900342,,874900342,,-27.58731,-48.49811,,,,,
1781725088,,Rodovia SC-401 (13),,-27.50457,-48.514,,,,,
1827531174,,Rodovia SC-406 (51),,-27.75367,-48.50984,,,,,
1833402022,,1833402022,,-27.45765,-48.45752,,,,,
1846288251,,Avenida Prefeito Waldemar Vieira (01),,-27.60962,-48.53638,,,,,
1829770065,,Rodovia SC-406 (34),,-27.76395,-48.51036,,,,,
2401015036,,Alameda César Nascimento (02),,-27.43945,-48.49017,,,,,
1773705639,,1773705639,,-27.60878,-48.53811,,,,,
906203325,,906203325,,-27.48681,-48.52049,,,,,
1681023443,,Avenida das Rendeiras (10),,-27.60949,-48.44479,,,,,
2178991481,,2178991481,,-27.44527,-48.42343,,,,,
2393967229,,Rodovia Baldicero Filomeno (107),,-27.75965,-48.57003,,,,,
2404247784,,2404247784,,-27.6857,-48.49095,,,,,
2422162021,,2422162021,,-27.45126,-48.45395,,,,,
1460258522,,Rua Governador Ivo Silveira (09),,-27.59984,-48.592,,,,,
2408001495,,Rua Sebastião Laurentino da Silva (02A),,-27.60723,-48.50422,,,,,
2441692663,,Rodovia Virgílio Várzea (08),,-27.54332,-48.50072,,,,,
1681023414,,Rua Vereador Osni Ortiga (05),,-27.62357,-48.46564,,,,,
2083714400,,2083714400,,-27.4995,-48.51135,,,,,
1457087102,,Rua Delminda Silveira (01),,-27.57506,-48.53202,,,,,
1681023386,,Avenida das Rendeiras (05),,-27.60894,-48.45155,,,,,
1775736230,,Rua Vereador Osni Ortiga (07),,-27.62846,-48.47209,,,,,
1836110258,,Rua Laurindo Januário da Silveira (19A),,-27.60475,-48.48039,,,,,
1659743411,,Rua Henrique Vera do Nascimento (02),,-27.60461,-48.46423,,,,,
1865178028,,Rodovia Admar Gonzaga (03),,-27.57819,-48.50931,,,,,
1460258400,,Rua Santos Saraiva (10),,-27.59817,-48.58717,,,,,
2082591436,,Avenida Rio Branco (01),,-27.59178,-48.54857,,,,,
1760536498,,Rodovia SC-405 (22),,-27.69505,-48.51072,,,,,
2134414171,,2134414171,,-27.43889,-48.39375,,,,,
909520904,,Avenida Madre Benvenuta (06),,-27.5914,-48.51472,,,,,
1681023402,,Rodovia Jornalista Manoel de Menezes (03),,-27.60237,-48.43525,,,,,
2442045833,,Rodovia Virgílio Várzea (10),,-27.53964,-48.50203,,,,,
2393967212,,Rodovia Baldicero Filomeno (102),,-27.76986,-48.57313,,,,,
1459357404,,Avenida Pequeno Príncipe (06),,-27.6797,-48.4956,,,,,
1714578292,,Rua Jerônimo Coelho (01),,-27.59486,-48.5515,,,,,
1760536504,,Rodovia SC-405 (27),,-27.69701,-48.51087,,,,,
1402454183,,Cidade Universitária (01),,-27.60166,-48.52497,,,,,
1456941782,,Avenida Mauro Ramos (03),,-27.59527,-48.54333,,,,,
2442045812,,Rodovia João Paulo (07),,-27.55788,-48.51514,,,,,
2400978316,,2400978316,,-27.44226,-48.48342,,,,,
2559818967,,2559818967,,-27.61734,-48.64447,,,,,
1027470422,,Rua João Pio Duarte Silva (11),,-27.60029,-48.51288,,,,,
874900070,,Rua João Pio Duarte Silva (01),,-27.60041,-48.51496,,,,,
2067008771,,2067008771,,-27.60721,-48.63003,,,,,
1425796975,,Rua Deputado Antônio Edu Vieira (10),,-27.60993,-48.52299,,,,,
1681023444,,Avenida Campeche (24),,-27.66642,-48.48136,,,,,
2083714392,,2083714392,,-27.49685,-48.50823,,,,,
1794826224,,1794826224,,-27.64087,-48.66529,,,,,
1836110245,,Rua Laurindo Januário da Silveira (01),,-27.63229,-48.47238,,,,,
2007442238,,Rodovia Baldicero Filomeno (155),,-27.70856,-48.51585,,,,,
2400978320,,2400978320,,-27.45092,-48.48721,,,,,
2441692667,,Rodovia Virgílio Várzea (11A),,-27.53872,-48.50407,,,,,
1457087118,,Avenida Mauro Ramos (12),,-27.59739,-48.54442,,,,,
1781725083,,Rodovia SC-401 (01),,-27.57514,-48.51418,,,,,
1850828447,,1850828447,,-27.67205,-48.48323,,,,,
2067008812,,2067008812,,-27.6001,-48.59728,,,,,
910973401,,Rodovia SC-401 (02),,-27.57216,-48.51261,,,,,
1424636496,,Rua Cap. Romualdo de Barros - 7,,-27.60386,-48.52889,,,,,
2573507839,,Rod. Amaro Antonio Veira (009),,-27.58512,-48.49726,,,,,
1685780701,,Rodovia SC-405 (11),,-27.6625,-48.50198,,,,,
1760536512,,Rodovia SC-406 (46),,-27.7339,-48.50863,,,,,
2442045809,,Rodovia João Paulo (04),,-27.56703,-48.51522,,,,,
1707846046,,Avenida Jorge Lacerda (13),,-27.6428788,-48.5218969,,,,,
1681047323,,Rodovia Antônio Luiz Moura Gonzaga (27),,-27.65272,-48.47952,,,,,
2067008754,,2067008754,,-27.59857,-48.5787,,,,,
2461093332,,Rua Intendente João Nunes Vieira (02),,-27.43948,-48.40723,,,,,
2461093334,,Rua Intendente João Nunes Vieira (04),,-27.43954,-48.40268,,,,,
2084331479,,Rua das Papoulas (02),,-27.44706,-48.52451,,,,,
2401015048,,Avenida dos Búzios (09),,-27.43783,-48.50942,,,,,
2082591438,,Avenida Rio Branco (04),,-27.59244,-48.55731,,,,,
2007442294,,2007442294,,-27.70803,-48.51356,,,,,
2395759004,,2395759004,,-27.78227,-48.5704,,,,,
1431853042,,Avenida César Seara (02),,-27.60456,-48.52341,,,,,
1811523328,,1811523328,,-27.60539,-48.53549,,,,,
2404247790,,2404247790,,-27.69169,-48.49881,,,,,
1630777036,,1630777036,,-27.6784,-48.48335,,,,,
1749712867,,Aeroporto Hercílio Luz (01),,-27.6652681,-48.5438325,,,,,
1609339391,,Rua João Pio Duarte Silva (06),,-27.60065,-48.50145,,,,,
2053049619,,Rua Manoel Pedro Vieira (02),,-27.71478,-48.50348,,,,,
2083714290,,2083714290,,-27.44632,-48.50259,,,,,
876374613,,Rua Lauro Linhares (11),,-27.5956,-48.52085,,,,,
1681023436,,1681023436,,-27.65377,-48.47931,,,,,
1695509253,,Avenida Deputado Diomício Freitas (11),,-27.6641,-48.53812,,,,,
1794789967,,1794789967,,-27.64606,-48.66801,,,,,
2304012636,,Rodovia João Paulo (13),,-27.55407,-48.50707,,,,,
1457087100,,Rua dos Ilhéus (01),,-27.59664,-48.54849,,,,,
1846288252,,Avenida Prefeito Waldemar Vieira (02),,-27.61024,-48.53333,,,,,
2283640517,,2283640517,,-27.44048,-48.39703,,,,,
1746649789,,Avenida Patrício Caldeira de Andrade (03),,-27.60766,-48.59197,,,,,
2393967236,,Rodovia Baldicero Filomeno (109),,-27.75665,-48.56732,,,,,
1551063312,,Rua Laurindo Januário da Silveira (05),,-27.62703,-48.47948,,,,,
1727999980,,1727999980,,-27.43734,-48.39063,,,,,
1424653174,,Rua Silva Jardim (06),,-27.60643,-48.5468,,,,,
1460258195,,Rua Governador Ivo Silveira (07),,-27.59978,-48.58681,,,,,
1760536527,,1760536527,,-27.73925,-48.50963,,,,,
1833402001,,Rodovia SC-401 (41),,-27.49225,-48.50411,,,,,
1551063339,,Rodovia Antônio Luiz Moura Gonzaga (35),,-27.66137,-48.49662,,,,,
2183882832,,2183882832,,-27.70119,-48.53781,,,,,
2178991477,,2178991477,,-27.43872,-48.42127,,,,,
1600672357,,Rua Barreiros Filho (01),,-27.59321,-48.58482,,,,,
2393967243,,Rodovia Baldicero Filomeno (110),,-27.75559,-48.56555,,,,,
2007442235,,Rodovia Baldicero Filomeno (151),,-27.70636,-48.52413,,,,,
2067252564,,2067252564,,-27.59594,-48.61464,,,,,
1681023442,,Avenida das Rendeiras (07),,-27.60941,-48.44862,,,,,
2441692682,,2441692682,,-27.53739,-48.50621,,,,,
2178991449,,Rodovia SC-401 (25),,-27.44669,-48.45743,,,,,
2461093321,,Rodovia SC-403 (10),,-27.44755,-48.425,,,,,
1457087112,,Avenida Rubens de Arruda Ramos (03),,-27.58609,-48.55024,,,,,
2467098995,,2467098995,,-27.41791,-48.42712,,,,,
874900345,,874900345,,-27.58718,-48.498,,,,,
1448000305,,Avenida Professor Henrique da Silva Fontes (02),,-27.58777,-48.51915,,,,,
1681023433,,Rua Vereador Osni Ortiga (08),,-27.63152,-48.47197,,,,,
1751611971,,Rodovia SC-403 (24),,-27.44768,-48.42775,,,,,
1832707238,,Rodovia SC-401 (16),,-27.48652,-48.4991,,,,,
1440307273,,Avenida Pequeno Príncipe (07),,-27.68138,-48.49317,,,,,
1433191573,,Rua Lauro Linhares (14),,-27.58702,-48.52431,,,,,
2083714304,,2083714304,,-27.44671,-48.52447,,,,,
1702065640,,1702065640,,-27.5858,-48.46132,,,,,
2401015039,,Avenida dos Búzios (02),,-27.44018,-48.49718,,,,,
1985714340,,Avenida Rio Branco (02),,-27.59163,-48.55109,,,,,
1460258076,,Rua Santos Saraiva (09),,-27.59772,-48.58885,,,,,
2441692676,,Rodovia Virgílio Várzea (20),,-27.55483,-48.49736,,,,,
1695509266,,Avenida Deputado Diomício Freitas (09),,-27.6636698,-48.5426436,,,,,
1760536507,,Rodovia SC-405 (34),,-27.67793,-48.50872,,,,,
1829770068,,Rodovia SC-406 (39),,-27.75362,-48.50967,,,,,
2069058344,,2069058344,,-27.49232,-48.52806,,,,,
1666280628,,1666280628,,-27.60905,-48.59375,,,,,
2178991469,,2178991469,,-27.43349,-48.45403,,,,,
1640685482,,Rua Silva Jardim (04),,-27.61146,-48.54997,,,,,
1754814297,,Rodovia SC-405 (35),,-27.67419,-48.50736,,,,,
876374616,,Rua Lauro Linhares 10,,-27.5969,-48.52046,,,,,
1681023453,,PF Estação Barra da Lagoa,,-27.57502,-48.42318,,,,,
1681047320,,Rodovia Antônio Luiz Moura Gonzaga (24),,-27.64707,-48.47877,,,,,
2300101121,,Rod. Amaro Antonio Veira (16),,-27.58387,-48.49912,,,,,
1873383177,,Avenida Jornalista Rubens de Arruda Ramos (01),,-27.58955,-48.56125,,,,,
2400978305,,Rua Jurerê Tradicional (02),,-27.44227,-48.48355,,,,,
1681023430,,Avenida das Rendeiras (06),,-27.60951,-48.44705,,,,,
1715695962,,1715695962,,-27.6324402,-48.5236918,,,,,
1746649770,,1746649770,,-27.60198,-48.61131,,,,,
1459292321,,Rua Auroreal (06),,-27.68696,-48.48915,,,,,
2178991472,,2178991472,,-27.4354,-48.42178,,,,,
2404247772,,2404247772,,-27.64026,-48.47459,,,,,
1757813166,,1757813166,,-27.67081,-48.48686,,,,,
1764384926,,1764384926,,-27.60863,-48.53802,,,,,
2053049650,,2053049650,,-27.71709,-48.50407,,,,,
2404247788,,2404247788,,-27.68829,-48.49745,,,,,
2183882717,,Rodovia Baldicero Filomeno (136),,-27.70364,-48.55501,,,,,
1439149159,,Rua Aldo Alves (01),,-27.61578,-48.52707,,,,,
1758635088,,Rua Silva Jardim (07),,-27.60273,-48.54605,,,,,
1781725108,,1781725108,,-27.52961,-48.51367,,,,,
2183882777,,2183882777,,-27.7003,-48.54664,,,,,
1446968342,,1446968342,,-27.64687,-48.52113,,,,,
1427179819,,Avenida Prefeito Waldemar Vieira (08),,-27.61431,-48.52715,,,,,
1685780705,,Rodovia SC-405 (06),,-27.65742,-48.51056,,,,,
2083714321,,2083714321,,-27.44724,-48.52798,,,,,
1666772236,,Rodovia SC-401 (08),,-27.54252,-48.50401,,,,,
1794826190,,1794826190,,-27.64332,-48.66737,,,,,
1434571474,,Rua Profa. Maria Flora Pausewang (01),,-27.59567,-48.51792,,,,,
1681047330,,Rodovia Antônio Luiz Moura Gonzaga (25),,-27.64933,-48.47878,,,,,
2405632330,,Avenida Madre Benvenuta (09),,-27.59042,-48.51109,,,,,
1428535918,,Rua Cap. Romualdo de Barros (02),,-27.60647,-48.53051,,,,,
1681047324,,Rua Laurindo Januário da Silveira (23),,-27.60325,-48.47704,,,,,
2067230189,,2067230189,,-27.5936,-48.6145,,,,,
2183882728,,Rodovia Baldicero Filomeno (139),,-27.69869,-48.55039,,,,,
1674562471,,1674562471,,-27.6406637,-48.5220152,,,,,
2408001491,,Rua João Pio Duarte Silva (08),,-27.60072,-48.50567,,,,,
1457087087,,Avenida Mauro Ramos (06),,-27.58563,-48.54352,,,,,
1827531255,,1827531255,,-27.72664,-48.50713,,,,,
1447430608,,Avenida Deputado Diomício Freitas (01),,-27.6483471,-48.5216586,,,,,
1760536502,,Rodovia SC-405 (25),,-27.70569,-48.5087,,,,,
1829770063,,Rodovia SC-406 (28),,-27.77969,-48.50737,,,,,
2035067663,,2035067663,,-27.59863,-48.6424,,,,,
1027390307,,Rua Delfino Conti (02),,-27.59897,-48.51913,,,,,
2067008785,,2067008785,,-27.60307,-48.63644,,,,,
1760536525,,1760536525,,-27.72219,-48.50418,,,,,
876374556,,Rua Lauro Linhares (05),,-27.58797,-48.52376,,,,,
2401015057,,Servidão José Cardoso de Oliveira (01),,-27.43375,-48.51489,,,,,
1437604703,,Avenida Hercílio Luz (01),,-27.59938,-48.54749,,,,,
1836110252,,Rua Laurindo Januário da Silveira (12),,-27.61814,-48.48408,,,,,
1630777052,,1630777052,,-27.68169,-48.48219,,,,,
1746649738,,1746649738,,-27.60937,-48.62632,,,,,
2035067690,,2035067690,,-27.59636,-48.64415,,,,,
2405632373,,2405632373,,-27.5976,-48.49076,,,,,
2441692652,,Rodovia João Paulo (18),,-27.56424,-48.51673,,,,,
1833401983,,Rodovia SC-401 (35),,-27.46907,-48.46827,,,,,
2404247747,,Rua do Gramal (11),,-27.6946,-48.49993,,,,,
2404247774,,2404247774,,-27.65786,-48.48697,,,,,
1432327758,,Cidade Universitária (04),,-27.60216,-48.51864,,,,,
1681023403,,1681023403,,-27.57461,-48.42819,,,,,
2067252561,,2067252561,,-27.59517,-48.61449,,,,,
1457087082,,Avenida Irineu Bornhausen,,-27.57321,-48.5381,,,,,
1828597617,,1828597617,,-27.78398,-48.5282,,,,,
2493693734,,2493693734,,-27.65906,-48.49157,,,,,
1639803069,,Rua Lauro Linhares (17),,-27.58032,-48.52636,,,,,
1749712892,,Avenida Deputado Diomício Freitas (08),,-27.6635596,-48.5441026,,,,,
874900051,,874900051,,-27.58861,-48.49726,,,,,
1760536529,,1760536529,,-27.74177,-48.50957,,,,,
2573546631,,2573546631,,-27.58272,-48.4965,,,,,
1749712878,,Avenida Deputado Diomício Freitas (05),,-27.6637342,-48.5402435,,,,,
1833401977,,Rodovia SC-401 (34),,-27.46795,-48.46698,,,,,
2405632342,,Rodovia Admar Gonzaga (20),,-27.59302,-48.49311,,,,,
2461093326,,Rua Graciliano Manoel Gomes (02),,-27.44262,-48.40959,,,,,
915079604,,915079604,,-27.58817,-48.50159,,,,,
2404247751,,Rua dos Eucaliptos S/N,,-27.69158,-48.48987,,,,,
1781725102,,Rodovia SC-401 (S/N),,-27.50812,-48.51326,,,,,
2178991487,,Rodovia SC-403 (27),,-27.44906,-48.43694,,,,,
1425157506,,Avenida César Seara (01),,-27.60358,-48.52532,,,,,
1416771157,,Rodovia SC-405 (41),,-27.66069,-48.50162,,,,,
1681023450,,Avenida das Rendeiras (11),,-27.60929,-48.44891,,,,,
1775736232,,Rua Jerônimo José Dias (03),,-27.61196,-48.54107,,,,,
2408001516,,2408001516,,-27.60626,-48.50382,,,,,
1681047326,,Rua Laurindo Januário da Silveira (23),,-27.61993,-48.48413,,,,,
1846288253,,Avenida Prefeito Waldemar Vieira (11),,-27.61019,-48.53295,,,,,
2067008876,,2067008876,,-27.60021,-48.59639,,,,,
1865178030,,Rodovia Admar Gonzaga (28),,-27.57802,-48.5092,,,,,
1781725095,,Rodovia SC-401 (52),,-27.54754,-48.50023,,,,,
2395759002,,2395759002,,-27.78075,-48.57172,,,,,
1422503609,,Avenida Pequeno Príncipe (01),,-27.67142,-48.50489,,,,,
1448000331,,Rua Paschoal Apóstolo Pítsica (03),,-27.57498,-48.52666,,,,,
1457087119,,Avenida Irineu Bornhausen (S/N),,-27.57593,-48.54248,,,,,
1681023417,,Rodovia Jornalista Manoel de Menezes (14),,-27.60699,-48.44089,,,,,
1797586192,,1797586192,,-27.60926,-48.63263,,,,,
2401015102,,2401015102,,-27.43991,-48.48603,,,,,
2442045827,,Rodovia Virgílio Várzea (04),,-27.54983,-48.49647,,,,,
1681047340,,Rua Laurindo Januário da Silveira (40),,-27.63118,-48.47426,,,,,
1715695959,,Avenida Jorge Lacerda (04),,-27.6305933,-48.5239611,,,,,
2084331471,,Avenida dos Dourados (08),,-27.44474,-48.49545,,,,,
2083714384,,2083714384,,-27.45007,-48.53872,,,,,
2404247807,,2404247807,,-27.70292,-48.49692,,,,,
1424636431,,Rua Des. Vitor Lima (03),,-27.59907,-48.52509,,,,,
1833402023,,1833402023,,-27.46027,-48.4582,,,,,
1987601591,,Rodovia Baldicero Filomeno Ponto Final,,-27.81616,-48.56173,,,,,
2084331476,,Rodovia SC-402 (12),,-27.45383,-48.4907,,,,,
2535760355,,Rua João Pacheco da Costa (05),,-27.59924,-48.46738,,,,,
2559831520,,2559831520,,-27.61947,-48.64152,,,,,
1829770160,,1829770160,,-27.7593,-48.50989,,,,,
2035067737,,2035067737,,-27.59627,-48.64325,,,,,
2084331474,,Rodovia SC-402 (07),,-27.45923,-48.49488,,,,,
2178991457,,2178991457,,-27.42586,-48.4248,,,,,
2400978321,,2400978321,,-27.45914,-48.49468,,,,,
1827531266,,1827531266,,-27.74624,-48.51027,,,,,
2037552437,,2037552437,,-27.57094,-48.5104,,,,,
2178991452,,2178991452,,-27.42198,-48.43145,,,,,
1695509241,,1695509241,,-27.65721,-48.50898,,,,,
2400978306,,Rua Jurerê Tradicional (03),,-27.4472,-48.48657,,,,,
2442045834,,Rodovia Virgílio Várzea (11),,-27.53803,-48.50712,,,,,
2084331472,,Avenida dos Dourados (09),,-27.44515,-48.49097,,,,,
2404247762,,2404247762,,-27.58976,-48.46049,,,,,
1681023389,,Avenida das Rendeiras (04),,-27.60823,-48.45426,,,,,
2393967219,,Rodovia Baldicero Filomeno (105),,-27.76382,-48.57445,,,,,
2283641238,,2283641238,,-27.44054,-48.39692,,,,,
2404247773,,2404247773,,-27.65417,-48.48123,,,,,
2308507873,,2308507873,,-27.5954,-48.49742,,,,,
1472560267,,Avenida Prefeito Waldemar Vieira (13),,-27.60958,-48.53778,,,,,
1681023410,,Avenida Prefeito Acácio Garibaldi S. Thiago (01),,-27.61019,-48.44209,,,,,
1684818729,,1684818729,,-27.65434,-48.51584,,,,,
2053049645,,2053049645,,-27.70989,-48.50255,,,,,
2404247786,,2404247786,,-27.68708,-48.48924,,,,,
2304009465,,Rodovia João Paulo (14),,-27.55516,-48.51211,,,,,
1404551655,,Av. Pequeno Príncipe (04),,-27.67675,-48.49985,,,,,
2278336795,,2278336795,,-27.662183,-48.5306832,,,,,
2178991480,,2178991480,,-27.44275,-48.42277,,,,,
1492870652,,Avenida Rubens de Arruda Ramos (01),,-27.58821,-48.55686,,,,,
2283640518,,2283640518,,-27.44301,-48.39776,,,,,
2083714175,,Avenida dos Dourados (01),,-27.44503,-48.48948,,,,,
2393967226,,Rodovia Baldicero Filomeno (106),,-27.76068,-48.57166,,,,,
1828597574,,1828597574,,-27.77924,-48.51966,,,,,
1425157494,,Avenida César Seara (04),,-27.60634,-48.52013,,,,,
1715695980,,Avenida Jorge Lacerda (20),,-27.6274805,-48.5246863,,,,,
1448000327,,Rua Profa. Maria Flora Pausewang (04),,-27.5956,-48.51753,,,,,
1749712902,,Avenida Deputado Diomício Freitas (13),,-27.6624252,-48.5304255,,,,,
1681047337,,Rodovia Antônio Luiz Moura Gonzaga (23),,-27.64539,-48.47756,,,,,
1712251903,,1712251903,,-27.59484,-48.53809,,,,,
1829770066,,Rodovia SC-406 (35),,-27.76194,-48.5105,,,,,
1428539456,,Rua João Motta Espezim (01),,-27.609,-48.53775,,,,,
1432752479,,1432752479,,-27.60116,-48.55127,,,,,
1551063362,,Rodovia Antônio Luiz Moura Gonzaga (18),,-27.63445,-48.47141,,,,,
2573507843,,Rod. Amaro Antônio Vieira (007),,-27.58336,-48.50055,,,,,
1492870624,,Avenida Rubens de Arruda Ramos (06),,-27.58527,-48.54998,,,,,
2012743290,,2012743290,,-27.57059,-48.5086,,,,,
1760536513,,Rodovia SC-406 (51),,-27.71672,-48.50719,,,,,
2404247787,,2404247787,,-27.68826,-48.49755,,,,,
1493545093,,1493545093,,-27.71963,-48.56408,,,,,
1714578301,,Rua Cap. Romualdo de Barros (04),,-27.60365,-48.52818,,,,,
2441692668,,Rodovia Virgílio Várzea (12),,-27.53972,-48.50205,,,,,
1427598031,,Rodovia SC-405 (05),,-27.65643,-48.51362,,,,,
2401015047,,Avenida dos Búzios (08),,-27.43677,-48.51159,,,,,
2573479583,,Rodovia Amaro Antônio Vieira (03),,-27.57565,-48.50869,,,,,
2401015050,,Avenida dos Búzios (16),,-27.44072,-48.49253,,,,,
1434216199,,Rua Deputado Antônio Edu Vieira (05),,-27.60942,-48.52244,,,,,
1424653177,,Rua João Motta Espezim (14),,-27.60882,-48.53769,,,,,
2404247764,,2404247764,,-27.59767,-48.46471,,,,,
2573546629,,2573546629,,-27.58086,-48.49451,,,,,
1534021473,,Rua Dr. Álvaro Millen da Silveira (01),,-27.602317,-48.5479669,,,,,
2067008857,,2067008857,,-27.59851,-48.57821,,,,,
1681023380,,Rodovia Jornalista Manoel de Menezes (10),,-27.59117,-48.4359,,,,,
1600672354,,Rua Antonieta de Barros (03),,-27.58917,-48.58451,,,,,
2007442248,,Rodovia Baldicero Filomeno (157),,-27.70783,-48.51164,,,,,
2183882705,,Rodovia Baldicero Filomeno (134),,-27.70666,-48.55705,,,,,
1827531297,,1827531297,,-27.76668,-48.50883,,,,,
2183882742,,Rodovia Baldicero Filomeno (144),,-27.70062,-48.54116,,,,,
1775736260,,1775736260,,-27.6313,-48.47191,,,,,
1827531153,,Avenida Antônio Borges dos Santos (05),,-27.75076,-48.50996,,,,,
2404247767,,2404247767,,-27.6096,-48.48277,,,,,
2395758989,,Rodovia Baldicero Filomeno (085),,-27.8078,-48.56057,,,,,
2084038567,,Rodovia Baldicero Filomeno (148),,-27.70385,-48.53034,,,,,
1707846020,,Avenida Jorge Lacerda (16),,-27.6375471,-48.5221775,,,,,
1659736478,,Avenida das Rendeiras (01),,-27.60625,-48.46307,,,,,
1829770159,,1829770159,,-27.75743,-48.50968,,,,,
1681023400,,Avenida das Rendeiras (02),,-27.60764,-48.45917,,,,,
1794789981,,1794789981,,-27.64522,-48.66586,,,,,
1457087089,,Rua Delminda Silveira (06),,-27.57489,-48.53193,,,,,
1553180791,,Avenida Afonso Delambert Neto (02),,-27.60375,-48.47003,,,,,
1681047325,,Rua Laurindo Januário da Silveira (26),,-27.60757,-48.48262,,,,,
1457087101,,Avenida Rubens de Arruda Ramos (04),,-27.58459,-48.5468,,,,,
1666772238,,Rodovia SC-401 (07),,-27.54444,-48.50241,,,,,
1432611495,,1432611495,,-27.61015,-48.53111,,,,,
1553180720,,Avenida Afonso Delambert Neto (01),,-27.60413,-48.46965,,,,,
2084038600,,2084038600,,-27.70374,-48.5301,,,,,
2084331473,,Avenida dos Dourados (10),,-27.4453,-48.48906,,,,,
1427179798,,Avenida Jorge Lacerda (19),,-27.6315685,-48.5235891,,,,,
1828597571,,Estrada Rozália Paulina Ferreira (08),,-27.78442,-48.53477,,,,,
2547724208,,2547724208,,-27.62509,-48.66372,,,,,
1681023383,,Rua Altamiro Barcelos Dutra (05),,-27.57673,-48.43163,,,,,
2404247797,,2404247797,,-27.69356,-48.49112,,,,,
1832707269,,1832707269,,-27.46645,-48.46427,,,,,
1827531426,,1827531426,,-27.78271,-48.52676,,,,,
2404247738,,Rua João Henrique Gonçalves (04),,-27.59389,-48.46113,,,,,
1829770153,,1829770153,,-27.7441,-48.50974,,,,,
2405632372,,2405632372,,-27.59077,-48.49406,,,,,
2007442303,,2007442303,,-27.70845,-48.51586,,,,,
1771988735,,Rua Des. Vitor Lima (06),,-27.59917,-48.52496,,,,,
1836110248,,Rua Laurindo Januário da Silveira (06),,-27.62503,-48.48031,,,,,
2461093339,,Servidão Luciano Garcia (01),,-27.45657,-48.4084,,,,,
2404247746,,Rua Tereza Lopes (02),,-27.69818,-48.50002,,,,,
1424388874,,Rua José Maria da Luz (01),,-27.61292,-48.54702,,,,,
1746649814,,1746649814,,-27.61195,-48.62578,,,,,
1460274600,,Rua Santos Saraiva (08),,-27.59653,-48.592,,,,,
2308507879,,2308507879,,-27.59499,-48.49724,,,,,
1681047329,,Rua Laurindo Januário da Silveira (25),,-27.60471,-48.48053,,,,,
1681023409,,Avenida Campeche (26),,-27.672,-48.48344,,,,,
1659726755,,Rua Rita Lourenço da Silveira (01),,-27.60402,-48.46363,,,,,
2393967279,,2393967279,,-27.76558,-48.57422,,,,,
1681023395,,Avenida das Rendeiras (12A),,-27.60813,-48.45424,,,,,
1431853040,,Avenida Prefeito Waldemar Vieira (05),,-27.617597,-48.5272995,,,,,
1674562472,,Rodovia SC-405 (07),,-27.65739,-48.50841,,,,,
1681023394,,Rodovia Jornalista Manoel de Menezes (11),,-27.59669,-48.43602,,,,,
876374520,,876374520,,-27.59261,-48.52064,,,,,
2134414168,,Estr. Dom João Becker (1),,-27.43898,-48.39018,,,,,
1469367894,,Rua Doutor Heitor Blum (02),,-27.59028,-48.58,,,,,
1760536511,,Rodovia SC-406 (45),,-27.73683,-48.5092,,,,,
2401015038,,Avenida dos Búzios (01),,-27.44041,-48.49455,,,,,
1762149818,,Avenida Professor Othon Gama D'Eça (02),,-27.58784,-48.55123,,,,,
1757813138,,1757813138,,-27.66156,-48.49955,,,,,
910973400,,Rodovia SC-401 (56),,-27.57188,-48.51294,,,,,
1681023426,,Avenida das Rendeiras (13),,-27.60781,-48.45716,,,,,
876374527,,Rua Lauro Linhares (12),,-27.59235,-48.52142,,,,,
1802197376,,1802197376,,-27.64255,-48.67151,,,,,
1760536499,,Rodovia SC-405 (23),,-27.69686,-48.51099,,,,,
2067008794,,2067008794,,-27.60129,-48.6391,,,,,
1794795933,,1794795933,,-27.64191,-48.67522,,,,,
1836110242,,Rua Hyppólito do Valle Pereira (01),,-27.60437,-48.47555,,,,,
2067232853,,2067232853,,-27.58806,-48.61264,,,,,
2441692656,,Rodovia Virgílio Várzea (01),,-27.55606,-48.49894,,,,,
2442045847,,2442045847,,-27.5347,-48.50072,,,,,
2393967254,,Rodovia Baldicero Filomeno (118),,-27.73835,-48.55977,,,,,
2083714273,,2083714273,,-27.44404,-48.5013,,,,,
2408001522,,2408001522,,-27.61039,-48.50554,,,,,
2395758999,,Rodovia Baldicero Filomeno (098),,-27.77927,-48.57333,,,,,
1424388851,,Rua José Maria da Luz (03),,-27.61314,-48.54582,,,,,
1457087066,,Avenida Mauro Ramos (09),,-27.58986,-48.54312,,,,,
1746649778,,1746649778,,-27.60332,-48.62075,,,,,
1828597570,,Estrada Rozália Paulina Ferreira (07),,-27.78325,-48.53582,,,,,
1827531281,,1827531281,,-27.75079,-48.50928,,,,,
1828597568,,Estrada João Bellarmino da Silva (09),,-27.77913,-48.50985,,,,,
1690408193,,Avenida Jorge Lacerda (22),,-27.6244851,-48.5258256,,,,,
2163686433,,Rodovia Amaro Antônio Vieira (21),,-27.57571,-48.51031,,,,,
2395758997,,Rodovia Baldicero Filomeno (094),,-27.78573,-48.56575,,,,,
1469367899,,Rua Doutor Heitor Blum (01),,-27.58887,-48.57859,,,,,
1827531265,,1827531265,,-27.74417,-48.50985,,,,,
1760536503,,Rodovia SC-405 (26),,-27.70126,-48.51018,,,,,
1681023412,,1681023412,,-27.65788,-48.48029,,,,,
1827531294,,1827531294,,-27.75915,-48.51,,,,,
2573479627,,2573479627,,-27.57666,-48.50645,,,,,
2183882685,,Rodovia Baldicero Filomeno (033),,-27.7214,-48.56399,,,,,
1869080853,,1869080853,,-27.5964,-48.5561,,,,,
2178991456,,2178991456,,-27.42528,-48.42612,,,,,
2007442273,,2007442273,,-27.70686,-48.51992,,,,,
2178991489,,2178991489,,-27.45171,-48.45184,,,,,
1836110244,,Rua Hyppólito do Valle Pereira (04),,-27.60824,-48.47669,,,,,
1681047344,,Rodovia Antônio Luiz Moura Gonzaga (29),,-27.65562,-48.48395,,,,,
876374548,,Rua Lauro Linhares (07),,-27.59231,-48.52158,,,,,
1794951576,,1794951576,,-27.64775,-48.66925,,,,,
1447420440,,Avenida Deputado Diomício Freitas (14),,-27.6490462,-48.5216472,,,,,
1746649751,,1746649751,,-27.6042,-48.61889,,,,,
2405632374,,2405632374,,-27.59859,-48.48988,,,,,
2422162005,,2422162005,,-27.43735,-48.45819,,,,,
2467098987,,2467098987,,-27.4077,-48.42425,,,,,
2035067685,,2035067685,,-27.60083,-48.64071,,,,,
2434685253,,2434685253,,-27.53552,-48.50396,,,,,
2007442288,,2007442288,,-27.70751,-48.51844,,,,,
1431106910,,Rua Santos Saraiva (02),,-27.598,-48.58496,,,,,
1829770069,,Rodovia SC-406 (41),,-27.74605,-48.51011,,,,,
2084038565,,Rodovia Baldicero Filomeno (146),,-27.70268,-48.5364,,,,,
1904788395,,1904788395,,-27.4631,-48.37792,,,,,
1836110240,,Rodovia Antônio Luiz Moura Gonzaga (12),,-27.64905,-48.47878,,,,,
1543299574,,1543299574,,-27.6106,-48.53985,,,,,
1681047343,,1681047343,,-27.61509,-48.48461,,,,,
2067230194,,2067230194,,-27.59974,-48.62151,,,,,
1827531394,,1827531394,,-27.7804,-48.5229,,,,,
2395758995,,Rodovia Baldicero Filomeno (093),,-27.78838,-48.56199,,,,,
2395759000,,Rodovia Baldicero Filomeno (158),,-27.79308,-48.55976,,,,,
1715695964,,Rua João Motta Espezim (06),,-27.61263,-48.52822,,,,,
2007442276,,2007442276,,-27.70708,-48.50955,,,,,
1695509268,,Avenida Deputado Diomício Freitas (12),,-27.6633559,-48.5343161,,,,,
2461093316,,Rodovia João Gualberto Soares (79),,-27.44263,-48.4025,,,,,
1690408176,,Rodovia SC-405 (06),,-27.65742,-48.51056,,,,,
2082591434,,Avenida Hercílio Luz (02),,-27.59708,-48.54706,,,,,
2573507842,,Rod. Amaro Antonio Veira (14),,-27.58489,-48.49736,,,,,
2441692662,,Rodovia Virgílio Várzea (07),,-27.54434,-48.49925,,,,,
2069048908,,2069048908,,-27.49008,-48.53748,,,,,
2467098990,,2467098990,,-27.40778,-48.42442,,,,,
1827531143,,Avenida Antônio Borges dos Santos (03),,-27.75059,-48.50311,,,,,
1431470229,,Avenida Jorge Lacerda (01),,-27.6231363,-48.5267694,,,,,
1836110256,,Rua Laurindo Januário da Silveira (18),,-27.60574,-48.48188,,,,,
2067008872,,2067008872,,-27.60207,-48.63727,,,,,
1453290669,,Avenida Pequeno Príncipe (13),,-27.68547,-48.4874,,,,,
2183882686,,Rodovia Baldicero Filomeno (130),,-27.71355,-48.56109,,,,,
129055549,,TIRIO - Terminal Rio Tavares,,-27.665904999999995,-48.503729166666666,,,,,
35165963,,Terminal Rodoviário Rita Maria,,-27.597035,-48.55836166666666,,,,,
130036355,,TICAN - Terminal Canasvieiras,,-27.45217166666667,-48.45604666666667,,,,,
141901565,,TILAG - Terminal Lagoa da Conceição,,-27.60266125,-48.470891249999994,,,,,
172361474,,TISAN - Terminal Santo Antônio de Lisboa,,-27.501483999999998,-48.515128000000004,,,,,
72944878,,TITRI - Terminal Trindade,,-27.58406285714286,-48.52283428571429,,,,,
168199871,,Estação Palhoça,,-27.629395454545456,-48.65500545454545,,,,,
43719844,,Terminal Urbano,,-27.599447999999995,-48.549943999999996,,,,,
43719878,,TICEN - Terminal Centro,,-27.597992368000003,-48.55419556800001,,,,,
